{
  "forecast_date": "2026-07-14",
  "window_start_local": "2026-07-14T06:00:00+02:00",
  "window_end_local": "2026-07-15T06:00:00+02:00",
  "window_start_utc": "2026-07-14T04:00:00+00:00",
  "window_end_utc": "2026-07-15T04:00:00+00:00",
  "source": "ESWD",
  "raw_count": 341,
  "report_count": 341,
  "reports": [
    {
      "id": "weather_events:[ d\"2026-07-15T03:59:00.000Z\", s\"01KXJ62MZ8714WTE13HBRAYDH5\" ]",
      "lat": 50.4,
      "lon": 16.519,
      "type": "PRECIP",
      "time": "2026-07-15T03:59:00.000Z",
      "country": "PL",
      "place": "Polanica-Zdrój",
      "description": "PWS recorded a rain amount of 35,6 mm in 50 minutes.",
      "info_source": [
        "WWW",
        "WXSVC"
      ],
      "references": [
        "\"Polanica-Zdrój - IPOLAN8\", Wunderground, date of access: 15 JUL 2026. "
      ]
    },
    {
      "id": "weather_events:[ d\"2026-07-15T03:54:00.000Z\", s\"01KXJ6ABEBBV091E7YM6888KT6\" ]",
      "lat": 48.372,
      "lon": 19.065,
      "type": "PRECIP",
      "time": "2026-07-15T03:54:00.000Z",
      "country": "SK",
      "place": "Krupina",
      "description": "PWS recorded a rain amount of 36,6 mm in 60 minutes.",
      "info_source": [
        "WWW",
        "WXSVC"
      ],
      "references": [
        "\"Vajsov - IKRUPI20\", Wunderground, date of access: 15 JUL 2026. "
      ]
    },
    {
      "id": "weather_events:[ d\"2026-07-15T03:24:00.000Z\", s\"01KXJ68FSM04HFH2S4K1RP57WE\" ]",
      "lat": 51.309,
      "lon": 16.908,
      "type": "PRECIP",
      "time": "2026-07-15T03:24:00.000Z",
      "country": "PL",
      "place": "Oborniki Śląskie",
      "description": "PWS recorded a rain amount of 39,4 mm in 40 minutes.",
      "info_source": [
        "WWW",
        "WXSVC"
      ],
      "references": [
        "\"Domek - IOBORN18\", Wunderground, date of access: 15 JUL 2026. "
      ]
    },
    {
      "id": "weather_events:[ d\"2026-07-15T03:20:00.000Z\", s\"01KXKCBW9BDTEAWNWSB1JAD9T1\" ]",
      "lat": 48.492,
      "lon": 9.2114,
      "type": "PRECIP",
      "time": "2026-07-15T03:20:00.000Z",
      "country": "DE",
      "place": "Reutlingen",
      "description": null,
      "info_source": [
        "NWSP"
      ],
      "references": [
        "\"Blitz schlägt in Scheune ein - Überschwemmung in Reutlingen\", STUTTGARTER ZEITUNG, 15 JUL 2026"
      ]
    },
    {
      "id": "weather_events:[ d\"2026-07-15T03:00:00.000Z\", s\"01KXKCEH9WDZENB3W03A105H30\" ]",
      "lat": 48.5315,
      "lon": 9.11,
      "type": "WIND",
      "time": "2026-07-15T03:00:00.000Z",
      "country": "DE",
      "place": "Lustnau",
      "description": null,
      "info_source": [
        "NWSP"
      ],
      "references": [
        "\"Blitz schlägt in Scheune ein - Überschwemmung in Reutlingen\", STUTTGARTER ZEITUNG, 15 JUL 2026"
      ]
    },
    {
      "id": "weather_events:[ d\"2026-07-15T03:00:00.000Z\", s\"01KXJ3MD037TCJZPWDMS9NYT5E\" ]",
      "lat": 50.823,
      "lon": 15.441,
      "type": "PRECIP",
      "time": "2026-07-15T03:00:00.000Z",
      "country": "PL",
      "place": "Jakuszyce",
      "description": "IMGW-PIB weather station (250150170) recorded a rain amount of 45,8 mm in 60 minutes. ",
      "info_source": [
        "WWW",
        "GOV",
        "WXSVC"
      ],
      "references": [
        "Hydro IMGW-PIB, date of access: 15 JUL 2026."
      ]
    },
    {
      "id": "weather_events:[ d\"2026-07-15T02:49:00.000Z\", s\"01KXJ6MQBY8CEXCHC8BCRYV1ZC\" ]",
      "lat": 50.397,
      "lon": 16.227,
      "type": "PRECIP",
      "time": "2026-07-15T02:49:00.000Z",
      "country": "CZ",
      "place": "Česká Čermná",
      "description": "PWS recorded a rain amount of 30,5 mm in 30 minutes.",
      "info_source": [
        "WWW",
        "WXSVC"
      ],
      "references": [
        "\"PKCC - IESKER2\", Wunderground, date of access: 15 JUL 2026. "
      ]
    },
    {
      "id": "weather_events:[ d\"2026-07-15T02:44:00.000Z\", s\"01KXJ6RVA776GEJ10VQ6TDBFH3\" ]",
      "lat": 50.545,
      "lon": 16.277,
      "type": "PRECIP",
      "time": "2026-07-15T02:44:00.000Z",
      "country": "CZ",
      "place": "Suchý Důl",
      "description": "PWS recorded a rain amount of 29 mm in 40 minutes.",
      "info_source": [
        "WWW",
        "WXSVC"
      ],
      "references": [
        "\"Niagára - ISUCHD13\", Wunderground, date of access: 15 JUL 2026. "
      ]
    },
    {
      "id": "weather_events:[ d\"2026-07-15T02:29:00.000Z\", s\"01KXJ6P30AWVBJTB40Z79001FQ\" ]",
      "lat": 50.407,
      "lon": 16.117,
      "type": "PRECIP",
      "time": "2026-07-15T02:29:00.000Z",
      "country": "CZ",
      "place": "Vysokov",
      "description": "PWS recorded a rain amount of 25,9 mm in 30 minutes.",
      "info_source": [
        "WWW",
        "WXSVC"
      ],
      "references": [
        "\"Sencor Vysokov - IVYSOK78\", Wunderground, date of access: 15 JUL 2026. "
      ]
    },
    {
      "id": "weather_events:[ d\"2026-07-15T02:20:00.000Z\", s\"01KXJBG6CWGYQ3J0RAPN1Q7G3A\" ]",
      "lat": 50.7481,
      "lon": 15.5145,
      "type": "PRECIP",
      "time": "2026-07-15T02:20:00.000Z",
      "country": "CZ",
      "place": "Dvoračky",
      "description": "torrential rain during thunderstorm | measurement by CHMI rain gauge station",
      "info_source": [
        "WXSVC"
      ],
      "references": [
        "Hlásná a předpovědní povodňová služba (HPPS), CHMI, 15 JUL 2026"
      ]
    },
    {
      "id": "weather_events:[ d\"2026-07-15T02:09:00.000Z\", s\"01KXKD4YY4V91ZAV980GFRQEDF\" ]",
      "lat": 47.4627,
      "lon": 11.245,
      "type": "LIGHTNING",
      "time": "2026-07-15T02:09:00.000Z",
      "country": "DE",
      "place": "Mt. Hoher Brendten",
      "description": "Lightning strike hit mountain soldier's biwak camp on Mount Hoher Brendten, NW of Mittenwald. Six male soliders were injured (youngest 18-yrs-old, oldest 26-yrs-old). One of them was badly injured.",
      "info_source": [
        "NWSP",
        "WXSVC"
      ],
      "references": [
        "\"Blitz schlägt in Bundeswehr-Biwak ein: Sechs Soldaten verletzt\", MERKUR, 15 JUL 2026",
        "kachelmannwetter.com"
      ]
    },
    {
      "id": "weather_events:[ d\"2026-07-15T02:04:00.000Z\", s\"01KXJ6QA1F2AH3TT1RP9ZX6H6T\" ]",
      "lat": 50.521,
      "lon": 16.213,
      "type": "PRECIP",
      "time": "2026-07-15T02:04:00.000Z",
      "country": "CZ",
      "place": "Velké Petrovice",
      "description": "PWS recorded a rain amount of 31 mm in 30 minutes.",
      "info_source": [
        "WWW",
        "WXSVC"
      ],
      "references": [
        "\"GoGen M3900 - IVELKP49\", Wunderground, date of access: 15 JUL 2026. "
      ]
    },
    {
      "id": "weather_events:[ d\"2026-07-15T01:59:00.000Z\", s\"01KXJ6ZH9D61XTEZ3G9BGVY28H\" ]",
      "lat": 50.723,
      "lon": 15.488,
      "type": "PRECIP",
      "time": "2026-07-15T01:59:00.000Z",
      "country": "CZ",
      "place": "Rokytno",
      "description": "PWS recorded a rain amount of 25,1 mm in 30 minutes.",
      "info_source": [
        "WWW",
        "WXSVC"
      ],
      "references": [
        "\"Vichřice Lenka - IROKYT53\", Wunderground, date of access: 15 JUL 2026. "
      ]
    },
    {
      "id": "weather_events:[ d\"2026-07-15T01:59:00.000Z\", s\"01KXJ6W5ADJC3F0GZ71FVN4475\" ]",
      "lat": 50.649,
      "lon": 15.606,
      "type": "PRECIP",
      "time": "2026-07-15T01:59:00.000Z",
      "country": "CZ",
      "place": "Vrchlabí",
      "description": "PWS recorded a rain amount of 41,7mm in 70 minutes.",
      "info_source": [
        "WWW",
        "WXSVC"
      ],
      "references": [
        "\"Meteostanice_hanus - IVRCHL17\", Wunderground, date of access: 15 JUL 2026. "
      ]
    },
    {
      "id": "weather_events:[ d\"2026-07-15T00:59:00.000Z\", s\"01KXJ6T8ES5K2RVC3P9TWJC8TD\" ]",
      "lat": 50.621,
      "lon": 15.614,
      "type": "PRECIP",
      "time": "2026-07-15T00:59:00.000Z",
      "country": "CZ",
      "place": "Vrchlabí",
      "description": "PWS recorded a rain amount of 32,5 mm in 20 minutes.",
      "info_source": [
        "WWW",
        "WXSVC"
      ],
      "references": [
        "\"Black Blood - IVRCHL19\", Wunderground, date of access: 15 JUL 2026. "
      ]
    },
    {
      "id": "weather_events:[ d\"2026-07-14T23:19:00.000Z\", s\"01KXJ5R0ARVR2G69R59MB0RBNK\" ]",
      "lat": 51.025,
      "lon": 14.464,
      "type": "PRECIP",
      "time": "2026-07-14T23:19:00.000Z",
      "country": "CZ",
      "place": "Šluknov",
      "description": "PWS recorded a rain amount of 60,7 mm in 60 minutes.",
      "info_source": [
        "WWW",
        "WXSVC"
      ],
      "references": [
        "\"Královka meteostation - ILUKNO18\", Wunderground, date of access: 15 JUL 2026. "
      ]
    },
    {
      "id": "weather_events:[ d\"2026-07-14T21:50:00.000Z\", s\"01KXKDB5X7ZY1TZEX295MSWRKJ\" ]",
      "lat": 47.6624,
      "lon": 9.9985,
      "type": "LIGHTNING",
      "time": "2026-07-14T21:50:00.000Z",
      "country": "DE",
      "place": "Gestratz",
      "description": null,
      "info_source": [
        "WWW",
        "WXSVC"
      ],
      "references": [
        "\"Gestratz: Blitz schlägt in Tenne ein – Heuboden gerät in Brand\", new-facts.eu, 15 JUL 2026",
        "kachelmannwetter.com"
      ]
    },
    {
      "id": "weather_events:[ d\"2026-07-14T21:27:00.000Z\", s\"01KXKA5WV50DCHVGJEC1RQTGXA\" ]",
      "lat": 47.9911,
      "lon": 11.9727,
      "type": "HAIL",
      "time": "2026-07-14T21:27:00.000Z",
      "country": "DE",
      "place": "Dorfen",
      "description": "Large hail 2 cm i.d. Radar checked",
      "info_source": [
        "WXSVC",
        "EYEWTN"
      ],
      "references": [
        "Witness observation. WarnWetter App (operated by Deutscher Wetterdienst, DWD), 14 JUL 2026"
      ]
    },
    {
      "id": "weather_events:[ d\"2026-07-14T21:25:00.000Z\", s\"01KXKAPTYRVVY1DS93Z74ZRA2Z\" ]",
      "lat": 48.2619,
      "lon": 11.3676,
      "type": "HAIL",
      "time": "2026-07-14T21:25:00.000Z",
      "country": "DE",
      "place": "Facha",
      "description": "Large hail 2 cm i.d. Radar checked",
      "info_source": [
        "WXSVC",
        "EYEWTN"
      ],
      "references": [
        "Witness observation. WarnWetter App (operated by Deutscher Wetterdienst, DWD), 14 JUL 2026"
      ]
    },
    {
      "id": "weather_events:[ d\"2026-07-14T21:18:00.000Z\", s\"01KXKA3HJYR28929GHHWAMXJE9\" ]",
      "lat": 48.2545,
      "lon": 11.3117,
      "type": "HAIL",
      "time": "2026-07-14T21:18:00.000Z",
      "country": "DE",
      "place": "Palsweis",
      "description": "Large hail 2 cm i.d. Radar checked",
      "info_source": [
        "WXSVC",
        "EYEWTN"
      ],
      "references": [
        "Witness observation. WarnWetter App (operated by Deutscher Wetterdienst, DWD), 14 JUL 2026"
      ]
    },
    {
      "id": "weather_events:[ d\"2026-07-14T21:15:00.000Z\", s\"01KXK9Y36ZM6WHAMM7TMTMSW36\" ]",
      "lat": 48.0188,
      "lon": 11.8031,
      "type": "HAIL",
      "time": "2026-07-14T21:15:00.000Z",
      "country": "DE",
      "place": "Tal",
      "description": "Large hail 2 cm i.d. Radar checked",
      "info_source": [
        "WXSVC",
        "EYEWTN"
      ],
      "references": [
        "Witness observation. WarnWetter App (operated by Deutscher Wetterdienst, DWD), 14 JUL 2026"
      ]
    },
    {
      "id": "weather_events:[ d\"2026-07-14T21:15:00.000Z\", s\"01KXK9XBR4EZVYWE4N9ZSX0W8C\" ]",
      "lat": 48.022,
      "lon": 11.8136,
      "type": "HAIL",
      "time": "2026-07-14T21:15:00.000Z",
      "country": "DE",
      "place": "Oberpframmern",
      "description": "Large hail 2 cm i.d. Radar checked",
      "info_source": [
        "WXSVC",
        "EYEWTN",
        "EVTPHOTO"
      ],
      "references": [
        "Witness observation. WarnWetter App (operated by Deutscher Wetterdienst, DWD), 14 JUL 2026"
      ]
    },
    {
      "id": "weather_events:[ d\"2026-07-14T20:50:00.000Z\", s\"01KXKDFWDER1KV8X0FW8YR7EQ1\" ]",
      "lat": 48.638,
      "lon": 12.4179,
      "type": "LIGHTNING",
      "time": "2026-07-14T20:50:00.000Z",
      "country": "DE",
      "place": "Kronwieden",
      "description": "Telegraph pole sat on fire by lightning strike",
      "info_source": [
        "NWSP",
        "WXSVC"
      ],
      "references": [
        "\"Ein Blitz schlägt in einen Telefonmast in Loiching ein und setzt ihn in Brand\", PASSAUER NEUE PRESSE, 15 JUL 2026",
        "kachelmannwetter.com"
      ]
    },
    {
      "id": "weather_events:[ d\"2026-07-14T20:50:00.000Z\", s\"01KXK9SEHRK312M8WNBWH2F2NZ\" ]",
      "lat": 48.282,
      "lon": 11.021,
      "type": "HAIL",
      "time": "2026-07-14T20:50:00.000Z",
      "country": "DE",
      "place": "Hörmannsberg",
      "description": "Large hail 2 cm i.d. Radar checked",
      "info_source": [
        "WXSVC",
        "EYEWTN",
        "EVTPHOTO"
      ],
      "references": [
        "Witness observation. WarnWetter App (operated by Deutscher Wetterdienst, DWD), 14 JUL 2026"
      ]
    },
    {
      "id": "weather_events:[ d\"2026-07-14T20:47:00.000Z\", s\"01KXK9REQBDJFTENZYWDN4F0CF\" ]",
      "lat": 48.2654,
      "lon": 10.9527,
      "type": "HAIL",
      "time": "2026-07-14T20:47:00.000Z",
      "country": "DE",
      "place": "Friedenau",
      "description": "Large hail 2 cm i.d. Radar checked",
      "info_source": [
        "WXSVC",
        "EYEWTN"
      ],
      "references": [
        "Witness observation. WarnWetter App (operated by Deutscher Wetterdienst, DWD), 14 JUL 2026"
      ]
    },
    {
      "id": "weather_events:[ d\"2026-07-14T20:43:00.000Z\", s\"01KXK9QS48CFKJHY4JXMJED0CF\" ]",
      "lat": 48.2499,
      "lon": 10.9086,
      "type": "HAIL",
      "time": "2026-07-14T20:43:00.000Z",
      "country": "DE",
      "place": "Lechaumühle",
      "description": "Large hail 2 cm i.d. Radar checked",
      "info_source": [
        "WXSVC",
        "EYEWTN"
      ],
      "references": [
        "Witness observation. WarnWetter App (operated by Deutscher Wetterdienst, DWD), 14 JUL 2026"
      ]
    },
    {
      "id": "weather_events:[ d\"2026-07-14T20:42:00.000Z\", s\"01KXK9Q2KF1RDX889EZV7TGNMF\" ]",
      "lat": 48.268,
      "lon": 10.8884,
      "type": "HAIL",
      "time": "2026-07-14T20:42:00.000Z",
      "country": "DE",
      "place": "Königsbrunn",
      "description": "Large hail 2 cm i.d. Radar checked",
      "info_source": [
        "WXSVC",
        "EYEWTN"
      ],
      "references": [
        "Witness observation. WarnWetter App (operated by Deutscher Wetterdienst, DWD), 14 JUL 2026"
      ]
    },
    {
      "id": "weather_events:[ d\"2026-07-14T20:36:00.000Z\", s\"01KXKC9BGPBNGZMBFVC43W5CYH\" ]",
      "lat": 47.734,
      "lon": 9.0735,
      "type": "LIGHTNING",
      "time": "2026-07-14T20:36:00.000Z",
      "country": "DE",
      "place": "Kaltbrunn",
      "description": null,
      "info_source": [
        "NWSP",
        "WXSVC"
      ],
      "references": [
        "\"Blitz schlägt in Scheune ein - Überschwemmung in Reutlingen\", STUTTGARTER ZEITUNG, 15 JUL 2026",
        "kachelmannwetter.com"
      ]
    },
    {
      "id": "weather_events:[ d\"2026-07-14T20:00:00.000Z\", s\"01KXJGG0BEP0CCAFM1FH9CDNQ1\" ]",
      "lat": 48.7132,
      "lon": 8.1484,
      "type": "HAIL",
      "time": "2026-07-14T20:00:00.000Z",
      "country": "DE",
      "place": "Müllenbach",
      "description": "Large hail 2.5 cm i.d. Radar checked",
      "info_source": [
        "WXSVC",
        "EYEWTN",
        "EVTPHOTO"
      ],
      "references": [
        "Witness observation. WarnWetter App (operated by Deutscher Wetterdienst, DWD), 14 JUL 2026"
      ]
    },
    {
      "id": "weather_events:[ d\"2026-07-14T19:57:00.000Z\", s\"01KXJGEK343HWPKCRTQX8CTSPX\" ]",
      "lat": 48.6999,
      "lon": 8.1107,
      "type": "HAIL",
      "time": "2026-07-14T19:57:00.000Z",
      "country": "DE",
      "place": "Oberweier",
      "description": "Large hail 2 cm i.d. Radar checked",
      "info_source": [
        "WXSVC",
        "EYEWTN"
      ],
      "references": [
        "Witness observation. WarnWetter App (operated by Deutscher Wetterdienst, DWD), 14 JUL 2026"
      ]
    },
    {
      "id": "weather_events:[ d\"2026-07-14T19:56:00.000Z\", s\"01KXJGC8DYPX5MQSC0GCHPKX2M\" ]",
      "lat": 48.7197,
      "lon": 8.1175,
      "type": "HAIL",
      "time": "2026-07-14T19:56:00.000Z",
      "country": "DE",
      "place": "Vimbuch",
      "description": "Large hail 3 cm i.d. Radar checked",
      "info_source": [
        "WXSVC",
        "EYEWTN"
      ],
      "references": [
        "Witness observation. WarnWetter App (operated by Deutscher Wetterdienst, DWD), 14 JUL 2026"
      ]
    },
    {
      "id": "weather_events:[ d\"2026-07-14T19:48:00.000Z\", s\"01KXJGA0CV1GJFH08NS3P5KYH4\" ]",
      "lat": 48.7251,
      "lon": 8.0072,
      "type": "HAIL",
      "time": "2026-07-14T19:48:00.000Z",
      "country": "DE",
      "place": "Lichtenau",
      "description": "Large hail 2 cm i.d. Radar checked",
      "info_source": [
        "WXSVC",
        "EYEWTN"
      ],
      "references": [
        "Witness observation. WarnWetter App (operated by Deutscher Wetterdienst, DWD), 14 JUL 2026"
      ]
    },
    {
      "id": "weather_events:[ d\"2026-07-14T19:45:00.000Z\", s\"01KXJGDSS7WED2XGRDHEPY50HW\" ]",
      "lat": 48.7468,
      "lon": 8.0433,
      "type": "HAIL",
      "time": "2026-07-14T19:45:00.000Z",
      "country": "DE",
      "place": "Schwarzach",
      "description": "Large hail 3 cm i.d. Radar checked",
      "info_source": [
        "WXSVC",
        "EYEWTN"
      ],
      "references": [
        "Witness observation. WarnWetter App (operated by Deutscher Wetterdienst, DWD), 14 JUL 2026"
      ]
    },
    {
      "id": "weather_events:[ d\"2026-07-14T19:43:00.000Z\", s\"01KXJGH92BAS0FJ37K0GK5B6Q8\" ]",
      "lat": 48.7553,
      "lon": 8.0073,
      "type": "HAIL",
      "time": "2026-07-14T19:43:00.000Z",
      "country": "DE",
      "place": "Greffern",
      "description": "Large hail 3 cm i.d. Radar checked",
      "info_source": [
        "WXSVC",
        "EYEWTN"
      ],
      "references": [
        "Witness observation. WarnWetter App (operated by Deutscher Wetterdienst, DWD), 14 JUL 2026"
      ]
    },
    {
      "id": "weather_events:[ d\"2026-07-14T19:26:00.000Z\", s\"01KXK9F8TJHZC9A9R4FFGTERZ8\" ]",
      "lat": 48.0173,
      "lon": 11.012,
      "type": "HAIL",
      "time": "2026-07-14T19:26:00.000Z",
      "country": "DE",
      "place": null,
      "description": null,
      "info_source": null,
      "references": null
    },
    {
      "id": "weather_events:[ d\"2026-07-14T19:21:00.000Z\", s\"01KXK9ACKP3KXPDWWNHM71N737\" ]",
      "lat": 48.012,
      "lon": 10.9692,
      "type": "HAIL",
      "time": "2026-07-14T19:21:00.000Z",
      "country": "DE",
      "place": null,
      "description": null,
      "info_source": null,
      "references": null
    },
    {
      "id": "weather_events:[ d\"2026-07-14T19:19:00.000Z\", s\"01KXK9BSTEGVZ9SFJMFRNJNS4Z\" ]",
      "lat": 48.0474,
      "lon": 10.9288,
      "type": "HAIL",
      "time": "2026-07-14T19:19:00.000Z",
      "country": "DE",
      "place": null,
      "description": null,
      "info_source": null,
      "references": null
    },
    {
      "id": "weather_events:[ d\"2026-07-14T19:18:00.000Z\", s\"01KXK9DCQ7N8DX7ZXNFQ90B4VC\" ]",
      "lat": 48.0305,
      "lon": 10.9126,
      "type": "HAIL",
      "time": "2026-07-14T19:18:00.000Z",
      "country": "DE",
      "place": null,
      "description": null,
      "info_source": null,
      "references": null
    },
    {
      "id": "weather_events:[ d\"2026-07-14T19:18:00.000Z\", s\"01KXK98K4E55G509DNJSXY37G2\" ]",
      "lat": 48.025,
      "lon": 10.9216,
      "type": "HAIL",
      "time": "2026-07-14T19:18:00.000Z",
      "country": "DE",
      "place": null,
      "description": null,
      "info_source": null,
      "references": null
    },
    {
      "id": "weather_events:[ d\"2026-07-14T19:16:00.000Z\", s\"01KXK9B5BAYH7BY9Y4QPEKVRX7\" ]",
      "lat": 48.0424,
      "lon": 10.9139,
      "type": "HAIL",
      "time": "2026-07-14T19:16:00.000Z",
      "country": "DE",
      "place": null,
      "description": null,
      "info_source": null,
      "references": null
    },
    {
      "id": "weather_events:[ d\"2026-07-14T19:12:00.000Z\", s\"01KXK910WWAZP2RVWSYHAXWH75\" ]",
      "lat": 48.0493,
      "lon": 10.8788,
      "type": "HAIL",
      "time": "2026-07-14T19:12:00.000Z",
      "country": "DE",
      "place": null,
      "description": null,
      "info_source": null,
      "references": null
    },
    {
      "id": "weather_events:[ d\"2026-07-14T19:11:00.000Z\", s\"01KXK94YV4KPK6EZMGN8HFNTF3\" ]",
      "lat": 48.0287,
      "lon": 10.8603,
      "type": "HAIL",
      "time": "2026-07-14T19:11:00.000Z",
      "country": "DE",
      "place": null,
      "description": null,
      "info_source": null,
      "references": null
    },
    {
      "id": "weather_events:[ d\"2026-07-14T19:11:00.000Z\", s\"01KXK93MRH5QXZFYPGNKB8JYPC\" ]",
      "lat": 48.0325,
      "lon": 10.8687,
      "type": "HAIL",
      "time": "2026-07-14T19:11:00.000Z",
      "country": "DE",
      "place": null,
      "description": null,
      "info_source": null,
      "references": null
    },
    {
      "id": "weather_events:[ d\"2026-07-14T19:11:00.000Z\", s\"01KXK92AMGYKYE85SJ9EG2EXWA\" ]",
      "lat": 48.0516,
      "lon": 10.8696,
      "type": "HAIL",
      "time": "2026-07-14T19:11:00.000Z",
      "country": "DE",
      "place": null,
      "description": null,
      "info_source": null,
      "references": null
    },
    {
      "id": "weather_events:[ d\"2026-07-14T19:11:00.000Z\", s\"01KXK8V3BAQPY2M8THNZ9RHY3W\" ]",
      "lat": 48.043,
      "lon": 10.827,
      "type": "HAIL",
      "time": "2026-07-14T19:11:00.000Z",
      "country": "DE",
      "place": null,
      "description": null,
      "info_source": null,
      "references": null
    },
    {
      "id": "weather_events:[ d\"2026-07-14T19:11:00.000Z\", s\"01KXK8NZP3677XENDAJNXJSV4P\" ]",
      "lat": 48.0405,
      "lon": 10.8574,
      "type": "HAIL",
      "time": "2026-07-14T19:11:00.000Z",
      "country": "DE",
      "place": null,
      "description": null,
      "info_source": null,
      "references": null
    },
    {
      "id": "weather_events:[ d\"2026-07-14T19:08:00.000Z\", s\"01KXK972QAH6RQEE4RPTE93D11\" ]",
      "lat": 48.052,
      "lon": 10.8131,
      "type": "HAIL",
      "time": "2026-07-14T19:08:00.000Z",
      "country": "DE",
      "place": null,
      "description": null,
      "info_source": null,
      "references": null
    },
    {
      "id": "weather_events:[ d\"2026-07-14T19:08:00.000Z\", s\"01KXK8XQ1SYZP68SQMAE9F8S8Z\" ]",
      "lat": 48.0728,
      "lon": 10.8146,
      "type": "HAIL",
      "time": "2026-07-14T19:08:00.000Z",
      "country": "DE",
      "place": null,
      "description": null,
      "info_source": null,
      "references": null
    },
    {
      "id": "weather_events:[ d\"2026-07-14T19:08:00.000Z\", s\"01KXK8KJBE4BP5ZDZGBWA3WR6P\" ]",
      "lat": 48.0228,
      "lon": 10.8279,
      "type": "HAIL",
      "time": "2026-07-14T19:08:00.000Z",
      "country": "DE",
      "place": null,
      "description": null,
      "info_source": null,
      "references": null
    },
    {
      "id": "weather_events:[ d\"2026-07-14T19:07:00.000Z\", s\"01KXK8T4B63QNM7SPJCSAYHSDV\" ]",
      "lat": 48.0255,
      "lon": 10.7966,
      "type": "HAIL",
      "time": "2026-07-14T19:07:00.000Z",
      "country": "DE",
      "place": null,
      "description": null,
      "info_source": null,
      "references": null
    },
    {
      "id": "weather_events:[ d\"2026-07-14T19:06:00.000Z\", s\"01KXK8ZPPRRH8V5AJN2MGJY8BH\" ]",
      "lat": 48.0684,
      "lon": 10.7935,
      "type": "HAIL",
      "time": "2026-07-14T19:06:00.000Z",
      "country": "DE",
      "place": null,
      "description": null,
      "info_source": null,
      "references": null
    },
    {
      "id": "weather_events:[ d\"2026-07-14T19:06:00.000Z\", s\"01KXK8SA3V8J7SMPC475WEZ8R0\" ]",
      "lat": 48.0135,
      "lon": 10.7864,
      "type": "HAIL",
      "time": "2026-07-14T19:06:00.000Z",
      "country": "DE",
      "place": null,
      "description": null,
      "info_source": null,
      "references": null
    },
    {
      "id": "weather_events:[ d\"2026-07-14T19:04:00.000Z\", s\"01KXK8QXE1MT0CVCXWXKNWJYBQ\" ]",
      "lat": 48.0469,
      "lon": 10.778,
      "type": "HAIL",
      "time": "2026-07-14T19:04:00.000Z",
      "country": "DE",
      "place": null,
      "description": null,
      "info_source": null,
      "references": null
    },
    {
      "id": "weather_events:[ d\"2026-07-14T19:01:00.000Z\", s\"01KXJX7ZJ1CQCPZR5PW3PSQ89J\" ]",
      "lat": 48.0262,
      "lon": 10.7761,
      "type": "HAIL",
      "time": "2026-07-14T19:01:00.000Z",
      "country": "DE",
      "place": null,
      "description": null,
      "info_source": null,
      "references": null
    },
    {
      "id": "weather_events:[ d\"2026-07-14T19:00:00.000Z\", s\"01KXJXD78BZ7JG66PM3SQQRZF9\" ]",
      "lat": 47.9994,
      "lon": 10.726,
      "type": "HAIL",
      "time": "2026-07-14T19:00:00.000Z",
      "country": "DE",
      "place": null,
      "description": null,
      "info_source": null,
      "references": null
    },
    {
      "id": "weather_events:[ d\"2026-07-14T19:00:00.000Z\", s\"01KXJX9A2G9V4FAX3E3G9VY7A0\" ]",
      "lat": 48.0363,
      "lon": 10.7255,
      "type": "HAIL",
      "time": "2026-07-14T19:00:00.000Z",
      "country": "DE",
      "place": null,
      "description": null,
      "info_source": null,
      "references": null
    },
    {
      "id": "weather_events:[ d\"2026-07-14T18:58:00.000Z\", s\"01KXJXAKG14ZYVDPE4321JH5A8\" ]",
      "lat": 48.0207,
      "lon": 10.7161,
      "type": "HAIL",
      "time": "2026-07-14T18:58:00.000Z",
      "country": "DE",
      "place": null,
      "description": null,
      "info_source": null,
      "references": null
    },
    {
      "id": "weather_events:[ d\"2026-07-14T18:54:00.000Z\", s\"01KXJXBTV9SCSA1ZDSB6ADNP40\" ]",
      "lat": 48.037,
      "lon": 10.6721,
      "type": "HAIL",
      "time": "2026-07-14T18:54:00.000Z",
      "country": "DE",
      "place": null,
      "description": null,
      "info_source": null,
      "references": null
    },
    {
      "id": "weather_events:[ d\"2026-07-14T18:51:00.000Z\", s\"01KXK8GYYH01W47A9P7NSDCRPD\" ]",
      "lat": 48.0316,
      "lon": 10.639,
      "type": "HAIL",
      "time": "2026-07-14T18:51:00.000Z",
      "country": "DE",
      "place": null,
      "description": null,
      "info_source": null,
      "references": null
    },
    {
      "id": "weather_events:[ d\"2026-07-14T18:46:00.000Z\", s\"01KXJX418SDYMV2JHJ5K01RHQ7\" ]",
      "lat": 48.0048,
      "lon": 10.5926,
      "type": "HAIL",
      "time": "2026-07-14T18:46:00.000Z",
      "country": "DE",
      "place": null,
      "description": null,
      "info_source": null,
      "references": null
    },
    {
      "id": "weather_events:[ d\"2026-07-14T18:45:00.000Z\", s\"01KXJX5YY4NTAQM19BG7P6Q0VX\" ]",
      "lat": 48.0352,
      "lon": 10.559,
      "type": "HAIL",
      "time": "2026-07-14T18:45:00.000Z",
      "country": "DE",
      "place": null,
      "description": null,
      "info_source": null,
      "references": null
    },
    {
      "id": "weather_events:[ d\"2026-07-14T18:43:00.000Z\", s\"01KXJX22YPQSX0SFMDV7XD67RJ\" ]",
      "lat": 48.6323,
      "lon": 11.4121,
      "type": "HAIL",
      "time": "2026-07-14T18:43:00.000Z",
      "country": "DE",
      "place": null,
      "description": null,
      "info_source": null,
      "references": null
    },
    {
      "id": "weather_events:[ d\"2026-07-14T18:41:00.000Z\", s\"01KXJWWZ6FCWHP7KNP8FQ7MSKH\" ]",
      "lat": 48.6751,
      "lon": 11.406,
      "type": "HAIL",
      "time": "2026-07-14T18:41:00.000Z",
      "country": "DE",
      "place": null,
      "description": null,
      "info_source": null,
      "references": null
    },
    {
      "id": "weather_events:[ d\"2026-07-14T18:38:00.000Z\", s\"01KXJWQ7E42BMZ8YE54SK2PJGP\" ]",
      "lat": 48.0464,
      "lon": 10.4883,
      "type": "HAIL",
      "time": "2026-07-14T18:38:00.000Z",
      "country": "DE",
      "place": null,
      "description": null,
      "info_source": null,
      "references": null
    },
    {
      "id": "weather_events:[ d\"2026-07-14T18:36:00.000Z\", s\"01KXJWZ9V0WQ7SCFKSNXF1GDQ4\" ]",
      "lat": 50.3975,
      "lon": 11.3809,
      "type": "HAIL",
      "time": "2026-07-14T18:36:00.000Z",
      "country": "DE",
      "place": null,
      "description": null,
      "info_source": null,
      "references": null
    },
    {
      "id": "weather_events:[ d\"2026-07-14T18:35:00.000Z\", s\"01KXJWSGF2CFTPFTVNXQ718YEK\" ]",
      "lat": 48.0424,
      "lon": 10.452,
      "type": "HAIL",
      "time": "2026-07-14T18:35:00.000Z",
      "country": "DE",
      "place": null,
      "description": null,
      "info_source": null,
      "references": null
    },
    {
      "id": "weather_events:[ d\"2026-07-14T18:35:00.000Z\", s\"01KXJWRHYBZVDAD3SXZW2B84X4\" ]",
      "lat": 48.0261,
      "lon": 10.4422,
      "type": "HAIL",
      "time": "2026-07-14T18:35:00.000Z",
      "country": "DE",
      "place": null,
      "description": null,
      "info_source": null,
      "references": null
    },
    {
      "id": "weather_events:[ d\"2026-07-14T18:30:00.000Z\", s\"01KXKCW8V65H7NSCC0YPGT9VJR\" ]",
      "lat": 49.2707,
      "lon": 12.9759,
      "type": "LIGHTNING",
      "time": "2026-07-14T18:30:00.000Z",
      "country": "DE",
      "place": null,
      "description": null,
      "info_source": null,
      "references": null
    },
    {
      "id": "weather_events:[ d\"2026-07-14T18:26:00.000Z\", s\"01KXJWHR0DFEWF56YNKS1YQ3X7\" ]",
      "lat": 48.0335,
      "lon": 10.3352,
      "type": "HAIL",
      "time": "2026-07-14T18:26:00.000Z",
      "country": "DE",
      "place": null,
      "description": null,
      "info_source": null,
      "references": null
    },
    {
      "id": "weather_events:[ d\"2026-07-14T18:20:00.000Z\", s\"01KXJW8001NTD0V9E95RHX8E5G\" ]",
      "lat": 48.7374,
      "lon": 11.1786,
      "type": "HAIL",
      "time": "2026-07-14T18:20:00.000Z",
      "country": "DE",
      "place": null,
      "description": null,
      "info_source": null,
      "references": null
    },
    {
      "id": "weather_events:[ d\"2026-07-14T18:19:00.000Z\", s\"01KXJWKG4PH68GV9B0FGV8N3P5\" ]",
      "lat": 48.0107,
      "lon": 10.271,
      "type": "HAIL",
      "time": "2026-07-14T18:19:00.000Z",
      "country": "DE",
      "place": null,
      "description": null,
      "info_source": null,
      "references": null
    },
    {
      "id": "weather_events:[ d\"2026-07-14T18:19:00.000Z\", s\"01KXJWEXEVN9VHTAZS1VS228FF\" ]",
      "lat": 48.7455,
      "lon": 11.1667,
      "type": "HAIL",
      "time": "2026-07-14T18:19:00.000Z",
      "country": "DE",
      "place": null,
      "description": null,
      "info_source": null,
      "references": null
    },
    {
      "id": "weather_events:[ d\"2026-07-14T18:18:00.000Z\", s\"01KXJWE3XYCC9XEKKCJTDCASTM\" ]",
      "lat": 48.7411,
      "lon": 11.1562,
      "type": "HAIL",
      "time": "2026-07-14T18:18:00.000Z",
      "country": "DE",
      "place": null,
      "description": null,
      "info_source": null,
      "references": null
    },
    {
      "id": "weather_events:[ d\"2026-07-14T18:18:00.000Z\", s\"01KXJW9ECRGER6EKNZVW2CDREV\" ]",
      "lat": 48.0167,
      "lon": 10.3,
      "type": "HAIL",
      "time": "2026-07-14T18:18:00.000Z",
      "country": "DE",
      "place": null,
      "description": null,
      "info_source": null,
      "references": null
    },
    {
      "id": "weather_events:[ d\"2026-07-14T18:16:00.000Z\", s\"01KXJWN7NX7DK9W3F0MR12036N\" ]",
      "lat": 48.013,
      "lon": 10.2449,
      "type": "HAIL",
      "time": "2026-07-14T18:16:00.000Z",
      "country": "DE",
      "place": null,
      "description": null,
      "info_source": null,
      "references": null
    },
    {
      "id": "weather_events:[ d\"2026-07-14T18:16:00.000Z\", s\"01KXJWBCVBMBT3BC0T9QV7HKPZ\" ]",
      "lat": 48.7465,
      "lon": 11.1072,
      "type": "HAIL",
      "time": "2026-07-14T18:16:00.000Z",
      "country": "DE",
      "place": null,
      "description": null,
      "info_source": null,
      "references": null
    },
    {
      "id": "weather_events:[ d\"2026-07-14T18:14:00.000Z\", s\"01KXJVZGX585D3YXGZS65AE94K\" ]",
      "lat": 48.7571,
      "lon": 11.0464,
      "type": "HAIL",
      "time": "2026-07-14T18:14:00.000Z",
      "country": "DE",
      "place": null,
      "description": null,
      "info_source": null,
      "references": null
    },
    {
      "id": "weather_events:[ d\"2026-07-14T18:12:00.000Z\", s\"01KXJVWHSQRJV6GDWB0HW7GF7T\" ]",
      "lat": 48.0035,
      "lon": 10.2202,
      "type": "HAIL",
      "time": "2026-07-14T18:12:00.000Z",
      "country": "DE",
      "place": null,
      "description": null,
      "info_source": null,
      "references": null
    },
    {
      "id": "weather_events:[ d\"2026-07-14T18:10:00.000Z\", s\"01KXJVMWMYWBBTAMBP7PTP2XT4\" ]",
      "lat": 47.9894,
      "lon": 10.2113,
      "type": "HAIL",
      "time": "2026-07-14T18:10:00.000Z",
      "country": "DE",
      "place": null,
      "description": null,
      "info_source": null,
      "references": null
    },
    {
      "id": "weather_events:[ d\"2026-07-14T18:09:00.000Z\", s\"01KXJVP9TTV5DB8Q84GWJGRPNG\" ]",
      "lat": 47.9958,
      "lon": 10.2044,
      "type": "HAIL",
      "time": "2026-07-14T18:09:00.000Z",
      "country": "DE",
      "place": null,
      "description": null,
      "info_source": null,
      "references": null
    },
    {
      "id": "weather_events:[ d\"2026-07-14T18:08:00.000Z\", s\"01KXJVXGW949CVARFMK3BTW301\" ]",
      "lat": 48.0022,
      "lon": 10.1803,
      "type": "HAIL",
      "time": "2026-07-14T18:08:00.000Z",
      "country": "DE",
      "place": null,
      "description": null,
      "info_source": null,
      "references": null
    },
    {
      "id": "weather_events:[ d\"2026-07-14T18:07:00.000Z\", s\"01KXJVV39HSE8Y7708X27BFSB3\" ]",
      "lat": 47.9863,
      "lon": 10.1808,
      "type": "HAIL",
      "time": "2026-07-14T18:07:00.000Z",
      "country": "DE",
      "place": null,
      "description": null,
      "info_source": null,
      "references": null
    },
    {
      "id": "weather_events:[ d\"2026-07-14T18:07:00.000Z\", s\"01KXJVS35PBZZF6JGYDQTADBQ0\" ]",
      "lat": 48.8931,
      "lon": 12.5632,
      "type": "HAIL",
      "time": "2026-07-14T18:07:00.000Z",
      "country": "DE",
      "place": null,
      "description": null,
      "info_source": null,
      "references": null
    },
    {
      "id": "weather_events:[ d\"2026-07-14T18:07:00.000Z\", s\"01KXJVFTC3NKWNWSE82DE8J3MF\" ]",
      "lat": 47.9736,
      "lon": 10.1784,
      "type": "HAIL",
      "time": "2026-07-14T18:07:00.000Z",
      "country": "DE",
      "place": null,
      "description": null,
      "info_source": null,
      "references": null
    },
    {
      "id": "weather_events:[ d\"2026-07-14T18:06:00.000Z\", s\"01KXJGTNB776FASN14HQD49RDK\" ]",
      "lat": 50.5118,
      "lon": 11.2784,
      "type": "HAIL",
      "time": "2026-07-14T18:06:00.000Z",
      "country": "DE",
      "place": null,
      "description": null,
      "info_source": null,
      "references": null
    },
    {
      "id": "weather_events:[ d\"2026-07-14T18:05:00.000Z\", s\"01KXJVEB3CQ370ATW273YM8FDP\" ]",
      "lat": 47.9932,
      "lon": 10.1527,
      "type": "HAIL",
      "time": "2026-07-14T18:05:00.000Z",
      "country": "DE",
      "place": null,
      "description": null,
      "info_source": null,
      "references": null
    },
    {
      "id": "weather_events:[ d\"2026-07-14T18:05:00.000Z\", s\"01KXJVBFAJC1TV067WVSMQAT4C\" ]",
      "lat": 47.9857,
      "lon": 10.1428,
      "type": "HAIL",
      "time": "2026-07-14T18:05:00.000Z",
      "country": "DE",
      "place": null,
      "description": null,
      "info_source": null,
      "references": null
    },
    {
      "id": "weather_events:[ d\"2026-07-14T18:05:00.000Z\", s\"01KXJV9MM5WZF8MYRFH5EWXGC7\" ]",
      "lat": 48.882,
      "lon": 12.5697,
      "type": "HAIL",
      "time": "2026-07-14T18:05:00.000Z",
      "country": "DE",
      "place": null,
      "description": null,
      "info_source": null,
      "references": null
    },
    {
      "id": "weather_events:[ d\"2026-07-14T18:04:00.000Z\", s\"01KXJV4ZVN1YFDP0BJFM82AHGJ\" ]",
      "lat": 48.0005,
      "lon": 10.1325,
      "type": "HAIL",
      "time": "2026-07-14T18:04:00.000Z",
      "country": "DE",
      "place": null,
      "description": null,
      "info_source": null,
      "references": null
    },
    {
      "id": "weather_events:[ d\"2026-07-14T18:03:00.000Z\", s\"01KXJVCZRCJRWF9B8FEHVRHYGF\" ]",
      "lat": 47.9937,
      "lon": 10.1175,
      "type": "HAIL",
      "time": "2026-07-14T18:03:00.000Z",
      "country": "DE",
      "place": null,
      "description": null,
      "info_source": null,
      "references": null
    },
    {
      "id": "weather_events:[ d\"2026-07-14T18:01:00.000Z\", s\"01KXJVH4DER677YWXB6V5VVQTN\" ]",
      "lat": 48.8872,
      "lon": 12.5055,
      "type": "HAIL",
      "time": "2026-07-14T18:01:00.000Z",
      "country": "DE",
      "place": null,
      "description": null,
      "info_source": null,
      "references": null
    },
    {
      "id": "weather_events:[ d\"2026-07-14T18:00:00.000Z\", s\"01KXJW697B1FZFKC9C0C8K5X45\" ]",
      "lat": 47.9981,
      "lon": 10.0838,
      "type": "HAIL",
      "time": "2026-07-14T18:00:00.000Z",
      "country": "DE",
      "place": null,
      "description": null,
      "info_source": null,
      "references": null
    },
    {
      "id": "weather_events:[ d\"2026-07-14T17:59:00.000Z\", s\"01KXJVK53TFK2X6N9H0RYJB6PJ\" ]",
      "lat": 48.895,
      "lon": 12.4857,
      "type": "HAIL",
      "time": "2026-07-14T17:59:00.000Z",
      "country": "DE",
      "place": null,
      "description": null,
      "info_source": null,
      "references": null
    },
    {
      "id": "weather_events:[ d\"2026-07-14T17:58:00.000Z\", s\"01KXJQFMZ78QF5V34HSNNN9WVB\" ]",
      "lat": 48.7748,
      "lon": 10.9963,
      "type": "HAIL",
      "time": "2026-07-14T17:58:00.000Z",
      "country": "DE",
      "place": null,
      "description": null,
      "info_source": null,
      "references": null
    },
    {
      "id": "weather_events:[ d\"2026-07-14T17:57:00.000Z\", s\"01KXJVQ5N0WD0MP57V7F6YR428\" ]",
      "lat": 48.9035,
      "lon": 12.4648,
      "type": "HAIL",
      "time": "2026-07-14T17:57:00.000Z",
      "country": "DE",
      "place": null,
      "description": null,
      "info_source": null,
      "references": null
    },
    {
      "id": "weather_events:[ d\"2026-07-14T17:51:00.000Z\", s\"01KXJW4BSMCVGN9R3QC4JTCWCZ\" ]",
      "lat": 48.9536,
      "lon": 12.4377,
      "type": "HAIL",
      "time": "2026-07-14T17:51:00.000Z",
      "country": "DE",
      "place": null,
      "description": null,
      "info_source": null,
      "references": null
    },
    {
      "id": "weather_events:[ d\"2026-07-14T17:46:00.000Z\", s\"01KXJQBRN5A1VJX73RPJE490F4\" ]",
      "lat": 48.9651,
      "lon": 12.3842,
      "type": "HAIL",
      "time": "2026-07-14T17:46:00.000Z",
      "country": "DE",
      "place": null,
      "description": null,
      "info_source": null,
      "references": null
    },
    {
      "id": "weather_events:[ d\"2026-07-14T17:38:00.000Z\", s\"01KXJGPNTYCW2MAMDDJP55GZDD\" ]",
      "lat": 50.685,
      "lon": 11.0106,
      "type": "HAIL",
      "time": "2026-07-14T17:38:00.000Z",
      "country": "DE",
      "place": null,
      "description": null,
      "info_source": null,
      "references": null
    },
    {
      "id": "weather_events:[ d\"2026-07-14T17:38:00.000Z\", s\"01KXJCQTVA0WBWB1HFQEEVE48P\" ]",
      "lat": 50.701,
      "lon": 11.0203,
      "type": "HAIL",
      "time": "2026-07-14T17:38:00.000Z",
      "country": "DE",
      "place": null,
      "description": null,
      "info_source": null,
      "references": null
    },
    {
      "id": "weather_events:[ d\"2026-07-14T17:35:00.000Z\", s\"01KXJCYZDPRMSA51TN1CTNPW9Y\" ]",
      "lat": 50.6889,
      "lon": 10.9204,
      "type": "HAIL",
      "time": "2026-07-14T17:35:00.000Z",
      "country": "DE",
      "place": null,
      "description": null,
      "info_source": null,
      "references": null
    },
    {
      "id": "weather_events:[ d\"2026-07-14T17:35:00.000Z\", s\"01KXGY488Y8JRJM0NBRFVWXYVG\" ]",
      "lat": 50.712,
      "lon": 10.9749,
      "type": "HAIL",
      "time": "2026-07-14T17:35:00.000Z",
      "country": "DE",
      "place": null,
      "description": null,
      "info_source": null,
      "references": null
    },
    {
      "id": "weather_events:[ d\"2026-07-14T17:35:00.000Z\", s\"01KXGY39K8MYDWPKFZQZ2HH949\" ]",
      "lat": 50.6744,
      "lon": 10.9692,
      "type": "HAIL",
      "time": "2026-07-14T17:35:00.000Z",
      "country": "DE",
      "place": null,
      "description": null,
      "info_source": null,
      "references": null
    },
    {
      "id": "weather_events:[ d\"2026-07-14T17:34:00.000Z\", s\"01KXJCWDRF48TANKDZJ1K9M8Z1\" ]",
      "lat": 50.6996,
      "lon": 10.9317,
      "type": "HAIL",
      "time": "2026-07-14T17:34:00.000Z",
      "country": "DE",
      "place": null,
      "description": null,
      "info_source": null,
      "references": null
    },
    {
      "id": "weather_events:[ d\"2026-07-14T17:32:00.000Z\", s\"01KXJBX2VS93TVFFD2E7ZQEJQ8\" ]",
      "lat": 50.7113,
      "lon": 10.9545,
      "type": "WIND",
      "time": "2026-07-14T17:32:00.000Z",
      "country": "DE",
      "place": null,
      "description": null,
      "info_source": null,
      "references": null
    },
    {
      "id": "weather_events:[ d\"2026-07-14T17:22:00.000Z\", s\"01KXJBT5K7T36CAC7JKE869AKS\" ]",
      "lat": 50.7649,
      "lon": 10.847,
      "type": "WIND",
      "time": "2026-07-14T17:22:00.000Z",
      "country": "DE",
      "place": null,
      "description": null,
      "info_source": null,
      "references": null
    },
    {
      "id": "weather_events:[ d\"2026-07-14T17:18:00.000Z\", s\"01KXJQAEJFQ701W8RABNPMHW95\" ]",
      "lat": 49.3798,
      "lon": 11.4031,
      "type": "HAIL",
      "time": "2026-07-14T17:18:00.000Z",
      "country": "DE",
      "place": null,
      "description": null,
      "info_source": null,
      "references": null
    },
    {
      "id": "weather_events:[ d\"2026-07-14T16:58:00.000Z\", s\"01KXJP4BQ8E7G05464TGBKZ8HJ\" ]",
      "lat": 49.4362,
      "lon": 11.2213,
      "type": "HAIL",
      "time": "2026-07-14T16:58:00.000Z",
      "country": "DE",
      "place": null,
      "description": null,
      "info_source": null,
      "references": null
    },
    {
      "id": "weather_events:[ d\"2026-07-14T16:57:00.000Z\", s\"01KXJP829J09WQRQAKYH6Q5C0X\" ]",
      "lat": 49.4646,
      "lon": 11.2008,
      "type": "HAIL",
      "time": "2026-07-14T16:57:00.000Z",
      "country": "DE",
      "place": null,
      "description": null,
      "info_source": null,
      "references": null
    },
    {
      "id": "weather_events:[ d\"2026-07-14T16:56:00.000Z\", s\"01KXJP6FA8V1EPFCP753RHAA27\" ]",
      "lat": 49.4354,
      "lon": 11.1559,
      "type": "HAIL",
      "time": "2026-07-14T16:56:00.000Z",
      "country": "DE",
      "place": null,
      "description": null,
      "info_source": null,
      "references": null
    },
    {
      "id": "weather_events:[ d\"2026-07-14T16:55:00.000Z\", s\"01KXJPA2Y5SNCXA41K9Y3Q8A1V\" ]",
      "lat": 49.4532,
      "lon": 11.1372,
      "type": "HAIL",
      "time": "2026-07-14T16:55:00.000Z",
      "country": "DE",
      "place": null,
      "description": null,
      "info_source": null,
      "references": null
    },
    {
      "id": "weather_events:[ d\"2026-07-14T16:55:00.000Z\", s\"01KXJFZV975GFFKWDK5ZD7JRCB\" ]",
      "lat": 49.6569,
      "lon": 11.0311,
      "type": "PRECIP",
      "time": "2026-07-14T16:55:00.000Z",
      "country": "DE",
      "place": null,
      "description": null,
      "info_source": null,
      "references": null
    },
    {
      "id": "weather_events:[ d\"2026-07-14T16:53:00.000Z\", s\"01KXJBW75K99014TFYEN6MFT3P\" ]",
      "lat": 50.8996,
      "lon": 10.7455,
      "type": "WIND",
      "time": "2026-07-14T16:53:00.000Z",
      "country": "DE",
      "place": null,
      "description": null,
      "info_source": null,
      "references": null
    },
    {
      "id": "weather_events:[ d\"2026-07-14T16:52:00.000Z\", s\"01KXJP2BT483KE5H19WYG2CZ36\" ]",
      "lat": 49.4675,
      "lon": 11.0978,
      "type": "HAIL",
      "time": "2026-07-14T16:52:00.000Z",
      "country": "DE",
      "place": null,
      "description": null,
      "info_source": null,
      "references": null
    },
    {
      "id": "weather_events:[ d\"2026-07-14T16:52:00.000Z\", s\"01KXJP18RRJY4NJH013W3G8G6E\" ]",
      "lat": 49.487,
      "lon": 11.1083,
      "type": "HAIL",
      "time": "2026-07-14T16:52:00.000Z",
      "country": "DE",
      "place": null,
      "description": null,
      "info_source": null,
      "references": null
    },
    {
      "id": "weather_events:[ d\"2026-07-14T16:52:00.000Z\", s\"01KXJNZ8RXX34YA4J9TFK1EDTB\" ]",
      "lat": 49.4747,
      "lon": 11.1021,
      "type": "HAIL",
      "time": "2026-07-14T16:52:00.000Z",
      "country": "DE",
      "place": null,
      "description": null,
      "info_source": null,
      "references": null
    },
    {
      "id": "weather_events:[ d\"2026-07-14T16:52:00.000Z\", s\"01KXJC1CH74Z8WNW4T7AC6MDYX\" ]",
      "lat": 50.9141,
      "lon": 10.7004,
      "type": "PRECIP",
      "time": "2026-07-14T16:52:00.000Z",
      "country": "DE",
      "place": null,
      "description": null,
      "info_source": null,
      "references": null
    },
    {
      "id": "weather_events:[ d\"2026-07-14T16:52:00.000Z\", s\"01KXJC06QNZK3WQVSX6MZFN3J6\" ]",
      "lat": 50.9441,
      "lon": 10.745,
      "type": "PRECIP",
      "time": "2026-07-14T16:52:00.000Z",
      "country": "DE",
      "place": null,
      "description": null,
      "info_source": null,
      "references": null
    },
    {
      "id": "weather_events:[ d\"2026-07-14T16:51:00.000Z\", s\"01KXJC3CXHV2JPX79Z7MJQGXME\" ]",
      "lat": 50.9199,
      "lon": 10.6856,
      "type": "PRECIP",
      "time": "2026-07-14T16:51:00.000Z",
      "country": "DE",
      "place": null,
      "description": null,
      "info_source": null,
      "references": null
    },
    {
      "id": "weather_events:[ d\"2026-07-14T16:50:00.000Z\", s\"01KXJP0QVG31GE8FZRQQNQ9KH8\" ]",
      "lat": 49.4918,
      "lon": 11.0629,
      "type": "HAIL",
      "time": "2026-07-14T16:50:00.000Z",
      "country": "DE",
      "place": null,
      "description": null,
      "info_source": null,
      "references": null
    },
    {
      "id": "weather_events:[ d\"2026-07-14T16:50:00.000Z\", s\"01KXJC0VXRHMAVFKGSTJYE3RKV\" ]",
      "lat": 50.9282,
      "lon": 10.6707,
      "type": "PRECIP",
      "time": "2026-07-14T16:50:00.000Z",
      "country": "DE",
      "place": null,
      "description": null,
      "info_source": null,
      "references": null
    },
    {
      "id": "weather_events:[ d\"2026-07-14T16:50:00.000Z\", s\"01KXJBZJ6ZQD68QEFD52TPTH4Q\" ]",
      "lat": 50.9406,
      "lon": 10.7045,
      "type": "PRECIP",
      "time": "2026-07-14T16:50:00.000Z",
      "country": "DE",
      "place": null,
      "description": null,
      "info_source": null,
      "references": null
    },
    {
      "id": "weather_events:[ d\"2026-07-14T16:49:00.000Z\", s\"01KXGXWF0N9SYG5YCQZ4R3QMBR\" ]",
      "lat": 50.9202,
      "lon": 10.7359,
      "type": "HAIL",
      "time": "2026-07-14T16:49:00.000Z",
      "country": "DE",
      "place": null,
      "description": null,
      "info_source": null,
      "references": null
    },
    {
      "id": "weather_events:[ d\"2026-07-14T16:46:00.000Z\", s\"01KXGXRWWXWY6DB8WP7E68CB01\" ]",
      "lat": 50.9324,
      "lon": 10.7153,
      "type": "HAIL",
      "time": "2026-07-14T16:46:00.000Z",
      "country": "DE",
      "place": null,
      "description": null,
      "info_source": null,
      "references": null
    },
    {
      "id": "weather_events:[ d\"2026-07-14T16:46:00.000Z\", s\"01KXGXPXCSVTF3JD478HFBS5BF\" ]",
      "lat": 50.9281,
      "lon": 10.7888,
      "type": "HAIL",
      "time": "2026-07-14T16:46:00.000Z",
      "country": "DE",
      "place": null,
      "description": null,
      "info_source": null,
      "references": null
    },
    {
      "id": "weather_events:[ d\"2026-07-14T16:41:00.000Z\", s\"01KXGXJGTCJ3AZQQA5WW2R3DZ2\" ]",
      "lat": 50.9416,
      "lon": 10.7156,
      "type": "HAIL",
      "time": "2026-07-14T16:41:00.000Z",
      "country": "DE",
      "place": null,
      "description": null,
      "info_source": null,
      "references": null
    },
    {
      "id": "weather_events:[ d\"2026-07-14T16:40:00.000Z\", s\"01KXJNRRWAVJRZFBHB2XT344HS\" ]",
      "lat": 49.5286,
      "lon": 10.9667,
      "type": "HAIL",
      "time": "2026-07-14T16:40:00.000Z",
      "country": "DE",
      "place": null,
      "description": null,
      "info_source": null,
      "references": null
    },
    {
      "id": "weather_events:[ d\"2026-07-14T16:39:00.000Z\", s\"01KXGXMJQJ1VMZWEC8P9VRQ5H1\" ]",
      "lat": 50.9556,
      "lon": 10.7023,
      "type": "HAIL",
      "time": "2026-07-14T16:39:00.000Z",
      "country": "DE",
      "place": null,
      "description": null,
      "info_source": null,
      "references": null
    },
    {
      "id": "weather_events:[ d\"2026-07-14T16:36:00.000Z\", s\"01KXJNN2NWB0NJVEA6KEP1AW37\" ]",
      "lat": 50.3783,
      "lon": 10.2562,
      "type": "HAIL",
      "time": "2026-07-14T16:36:00.000Z",
      "country": "DE",
      "place": null,
      "description": null,
      "info_source": null,
      "references": null
    },
    {
      "id": "weather_events:[ d\"2026-07-14T16:35:00.000Z\", s\"01KXJNPGB2PGVC6PMZC2TFPAW9\" ]",
      "lat": 50.3832,
      "lon": 10.2195,
      "type": "HAIL",
      "time": "2026-07-14T16:35:00.000Z",
      "country": "DE",
      "place": null,
      "description": null,
      "info_source": null,
      "references": null
    },
    {
      "id": "weather_events:[ d\"2026-07-14T16:30:00.000Z\", s\"01KXH160K356YXAWFVZ0FHZ3EE\" ]",
      "lat": 50.8995,
      "lon": 21.2232,
      "type": "WIND",
      "time": "2026-07-14T16:30:00.000Z",
      "country": "PL",
      "place": null,
      "description": null,
      "info_source": null,
      "references": null
    },
    {
      "id": "weather_events:[ d\"2026-07-14T16:21:00.000Z\", s\"01KXJNK6ZDA833TQT5NAHKR293\" ]",
      "lat": 50.3553,
      "lon": 10.1328,
      "type": "HAIL",
      "time": "2026-07-14T16:21:00.000Z",
      "country": "DE",
      "place": null,
      "description": null,
      "info_source": null,
      "references": null
    },
    {
      "id": "weather_events:[ d\"2026-07-14T16:20:00.000Z\", s\"01KXK39H7GZAKV5MRJV7S2JDH5\" ]",
      "lat": 46.4966,
      "lon": 16.2256,
      "type": "LIGHTNING",
      "time": "2026-07-14T16:20:00.000Z",
      "country": "SI",
      "place": null,
      "description": null,
      "info_source": null,
      "references": null
    },
    {
      "id": "weather_events:[ d\"2026-07-14T16:15:00.000Z\", s\"01KXH1555AAWTVAK5EJB7DNJQ0\" ]",
      "lat": 50.9541,
      "lon": 21.2788,
      "type": "WIND",
      "time": "2026-07-14T16:15:00.000Z",
      "country": "PL",
      "place": null,
      "description": null,
      "info_source": null,
      "references": null
    },
    {
      "id": "weather_events:[ d\"2026-07-14T16:15:00.000Z\", s\"01KXH1433SDWZW09RV8ZG9Z2J3\" ]",
      "lat": 50.9433,
      "lon": 21.4094,
      "type": "PRECIP",
      "time": "2026-07-14T16:15:00.000Z",
      "country": "PL",
      "place": null,
      "description": null,
      "info_source": null,
      "references": null
    },
    {
      "id": "weather_events:[ d\"2026-07-14T16:14:00.000Z\", s\"01KXGYQ5HPJHPQ8Y2TY4TQH2SG\" ]",
      "lat": 50.3085,
      "lon": 9.5093,
      "type": "HAIL",
      "time": "2026-07-14T16:14:00.000Z",
      "country": "DE",
      "place": null,
      "description": null,
      "info_source": null,
      "references": null
    },
    {
      "id": "weather_events:[ d\"2026-07-14T16:10:00.000Z\", s\"01KXK3H6HD0NW29SYJ5EFFQZ6F\" ]",
      "lat": 50.9383,
      "lon": 21.1949,
      "type": "WIND",
      "time": "2026-07-14T16:10:00.000Z",
      "country": "PL",
      "place": null,
      "description": null,
      "info_source": null,
      "references": null
    },
    {
      "id": "weather_events:[ d\"2026-07-14T16:09:00.000Z\", s\"01KXJNDXQZ4A82R0CYNJEHZ91J\" ]",
      "lat": 49.6707,
      "lon": 10.7204,
      "type": "HAIL",
      "time": "2026-07-14T16:09:00.000Z",
      "country": "DE",
      "place": null,
      "description": null,
      "info_source": null,
      "references": null
    },
    {
      "id": "weather_events:[ d\"2026-07-14T16:06:00.000Z\", s\"01KXJN6M6TA30NWJ925SAVXB75\" ]",
      "lat": 50.3474,
      "lon": 10.0506,
      "type": "HAIL",
      "time": "2026-07-14T16:06:00.000Z",
      "country": "DE",
      "place": null,
      "description": null,
      "info_source": null,
      "references": null
    },
    {
      "id": "weather_events:[ d\"2026-07-14T16:06:00.000Z\", s\"01KXGYNT8FBJ8KT8RAXHX0B5M0\" ]",
      "lat": 50.3358,
      "lon": 9.4613,
      "type": "HAIL",
      "time": "2026-07-14T16:06:00.000Z",
      "country": "DE",
      "place": null,
      "description": null,
      "info_source": null,
      "references": null
    },
    {
      "id": "weather_events:[ d\"2026-07-14T16:05:00.000Z\", s\"01KXJNFYW9E8KEAWF7W2H6VY8W\" ]",
      "lat": 49.691,
      "lon": 10.6843,
      "type": "HAIL",
      "time": "2026-07-14T16:05:00.000Z",
      "country": "DE",
      "place": null,
      "description": null,
      "info_source": null,
      "references": null
    },
    {
      "id": "weather_events:[ d\"2026-07-14T16:05:00.000Z\", s\"01KXJEYSQ2W2MCX52B84CMC2Z1\" ]",
      "lat": 49.5118,
      "lon": 11.2813,
      "type": "PRECIP",
      "time": "2026-07-14T16:05:00.000Z",
      "country": "DE",
      "place": null,
      "description": null,
      "info_source": null,
      "references": null
    },
    {
      "id": "weather_events:[ d\"2026-07-14T16:04:00.000Z\", s\"01KXJN3HRS4G2TB8EYGHV64ZRQ\" ]",
      "lat": 50.3442,
      "lon": 10.0091,
      "type": "HAIL",
      "time": "2026-07-14T16:04:00.000Z",
      "country": "DE",
      "place": null,
      "description": null,
      "info_source": null,
      "references": null
    },
    {
      "id": "weather_events:[ d\"2026-07-14T16:03:00.000Z\", s\"01KXJEZ8A7504BCEKRVN76T9TH\" ]",
      "lat": 49.5,
      "lon": 11.25,
      "type": "PRECIP",
      "time": "2026-07-14T16:03:00.000Z",
      "country": "DE",
      "place": null,
      "description": null,
      "info_source": null,
      "references": null
    },
    {
      "id": "weather_events:[ d\"2026-07-14T16:02:00.000Z\", s\"01KXJPD0MQXX02FPJ8R4S27A8H\" ]",
      "lat": 50.2713,
      "lon": 9.9929,
      "type": "HAIL",
      "time": "2026-07-14T16:02:00.000Z",
      "country": "DE",
      "place": null,
      "description": null,
      "info_source": null,
      "references": null
    },
    {
      "id": "weather_events:[ d\"2026-07-14T15:58:00.000Z\", s\"01KXK2R6E2XW03VJ1EKCD9SHAA\" ]",
      "lat": 46.5867,
      "lon": 16.2763,
      "type": "LIGHTNING",
      "time": "2026-07-14T15:58:00.000Z",
      "country": "SI",
      "place": null,
      "description": null,
      "info_source": null,
      "references": null
    },
    {
      "id": "weather_events:[ d\"2026-07-14T15:55:00.000Z\", s\"01KXJMZZZTD9J5Y7CKKXEEGG18\" ]",
      "lat": 50.2674,
      "lon": 9.9412,
      "type": "HAIL",
      "time": "2026-07-14T15:55:00.000Z",
      "country": "DE",
      "place": null,
      "description": null,
      "info_source": null,
      "references": null
    },
    {
      "id": "weather_events:[ d\"2026-07-14T15:53:00.000Z\", s\"01KXJNB29WJEJW7H2PQB2XKQ7Q\" ]",
      "lat": 49.4813,
      "lon": 11.2249,
      "type": "HAIL",
      "time": "2026-07-14T15:53:00.000Z",
      "country": "DE",
      "place": null,
      "description": null,
      "info_source": null,
      "references": null
    },
    {
      "id": "weather_events:[ d\"2026-07-14T15:53:00.000Z\", s\"01KXJMWVP6WQAECHB5M61KN64Z\" ]",
      "lat": 49.488,
      "lon": 11.2517,
      "type": "HAIL",
      "time": "2026-07-14T15:53:00.000Z",
      "country": "DE",
      "place": null,
      "description": null,
      "info_source": null,
      "references": null
    },
    {
      "id": "weather_events:[ d\"2026-07-14T15:53:00.000Z\", s\"01KXJMTKF09Y74SJMAPQKVQD8R\" ]",
      "lat": 49.5096,
      "lon": 11.2713,
      "type": "HAIL",
      "time": "2026-07-14T15:53:00.000Z",
      "country": "DE",
      "place": null,
      "description": null,
      "info_source": null,
      "references": null
    },
    {
      "id": "weather_events:[ d\"2026-07-14T15:52:00.000Z\", s\"01KXJMXP92Y7W9QZHD10VWF8NK\" ]",
      "lat": 49.5044,
      "lon": 11.26,
      "type": "HAIL",
      "time": "2026-07-14T15:52:00.000Z",
      "country": "DE",
      "place": null,
      "description": null,
      "info_source": null,
      "references": null
    },
    {
      "id": "weather_events:[ d\"2026-07-14T15:52:00.000Z\", s\"01KXJMS5YWABY37QGVDQPS2DBD\" ]",
      "lat": 49.5,
      "lon": 11.25,
      "type": "HAIL",
      "time": "2026-07-14T15:52:00.000Z",
      "country": "DE",
      "place": null,
      "description": null,
      "info_source": null,
      "references": null
    },
    {
      "id": "weather_events:[ d\"2026-07-14T15:51:00.000Z\", s\"01KXJEZWGT9AE85FJMS216B2RM\" ]",
      "lat": 49.4688,
      "lon": 11.2016,
      "type": "PRECIP",
      "time": "2026-07-14T15:51:00.000Z",
      "country": "DE",
      "place": null,
      "description": null,
      "info_source": null,
      "references": null
    },
    {
      "id": "weather_events:[ d\"2026-07-14T15:50:00.000Z\", s\"01KXK35A4GVRSTVAV4YRBZEP4D\" ]",
      "lat": 46.8019,
      "lon": 16.0919,
      "type": "WIND",
      "time": "2026-07-14T15:50:00.000Z",
      "country": "SI",
      "place": null,
      "description": null,
      "info_source": null,
      "references": null
    },
    {
      "id": "weather_events:[ d\"2026-07-14T15:50:00.000Z\", s\"01KXK2ZBHS0DCMNSXH9AHCYC3S\" ]",
      "lat": 46.7063,
      "lon": 16.1177,
      "type": "WIND",
      "time": "2026-07-14T15:50:00.000Z",
      "country": "SI",
      "place": null,
      "description": null,
      "info_source": null,
      "references": null
    },
    {
      "id": "weather_events:[ d\"2026-07-14T15:50:00.000Z\", s\"01KXK2XREQHZ2QQBCXHDXZRQZ2\" ]",
      "lat": 46.6701,
      "lon": 16.2084,
      "type": "WIND",
      "time": "2026-07-14T15:50:00.000Z",
      "country": "SI",
      "place": null,
      "description": null,
      "info_source": null,
      "references": null
    },
    {
      "id": "weather_events:[ d\"2026-07-14T15:50:00.000Z\", s\"01KXJFWEWZ6HX268JRM4M3FPS8\" ]",
      "lat": 49.4849,
      "lon": 11.2423,
      "type": "HAIL",
      "time": "2026-07-14T15:50:00.000Z",
      "country": "DE",
      "place": null,
      "description": null,
      "info_source": null,
      "references": null
    },
    {
      "id": "weather_events:[ d\"2026-07-14T15:50:00.000Z\", s\"01KXJEHBYBZ0ZBF0YTW12EP80K\" ]",
      "lat": 49.5301,
      "lon": 11.15,
      "type": "PRECIP",
      "time": "2026-07-14T15:50:00.000Z",
      "country": "DE",
      "place": null,
      "description": null,
      "info_source": null,
      "references": null
    },
    {
      "id": "weather_events:[ d\"2026-07-14T15:48:00.000Z\", s\"01KXK2X6E3453FFGJXP6WX1TYF\" ]",
      "lat": 46.7817,
      "lon": 16.0312,
      "type": "WIND",
      "time": "2026-07-14T15:48:00.000Z",
      "country": "SI",
      "place": null,
      "description": null,
      "info_source": null,
      "references": null
    },
    {
      "id": "weather_events:[ d\"2026-07-14T15:46:00.000Z\", s\"01KXJEGP48MMR8RVA5YXG0TWB8\" ]",
      "lat": 49.5733,
      "lon": 11.1997,
      "type": "PRECIP",
      "time": "2026-07-14T15:46:00.000Z",
      "country": "DE",
      "place": null,
      "description": null,
      "info_source": null,
      "references": null
    },
    {
      "id": "weather_events:[ d\"2026-07-14T15:46:00.000Z\", s\"01KXJE4NGMQJE4JJ2X1SX5JKH3\" ]",
      "lat": 49.4851,
      "lon": 11.2539,
      "type": "WIND",
      "time": "2026-07-14T15:46:00.000Z",
      "country": "DE",
      "place": null,
      "description": null,
      "info_source": null,
      "references": null
    },
    {
      "id": "weather_events:[ d\"2026-07-14T15:46:00.000Z\", s\"01KXGYKS8QW7E29YSJCW3HJ3RZ\" ]",
      "lat": 50.4116,
      "lon": 9.3416,
      "type": "HAIL",
      "time": "2026-07-14T15:46:00.000Z",
      "country": "DE",
      "place": null,
      "description": null,
      "info_source": null,
      "references": null
    },
    {
      "id": "weather_events:[ d\"2026-07-14T15:45:00.000Z\", s\"01KXK34ZE5Y39AHKQ4XY3A5J8C\" ]",
      "lat": 46.7185,
      "lon": 16.0187,
      "type": "WIND",
      "time": "2026-07-14T15:45:00.000Z",
      "country": "SI",
      "place": null,
      "description": null,
      "info_source": null,
      "references": null
    },
    {
      "id": "weather_events:[ d\"2026-07-14T15:45:00.000Z\", s\"01KXK34KJM2G4Z5Y0R9ESAC2N8\" ]",
      "lat": 46.8056,
      "lon": 16.0352,
      "type": "WIND",
      "time": "2026-07-14T15:45:00.000Z",
      "country": "SI",
      "place": null,
      "description": null,
      "info_source": null,
      "references": null
    },
    {
      "id": "weather_events:[ d\"2026-07-14T15:44:00.000Z\", s\"01KXJEGAW8NH4P0F60937V47JR\" ]",
      "lat": 49.5581,
      "lon": 11.1383,
      "type": "PRECIP",
      "time": "2026-07-14T15:44:00.000Z",
      "country": "DE",
      "place": null,
      "description": null,
      "info_source": null,
      "references": null
    },
    {
      "id": "weather_events:[ d\"2026-07-14T15:42:00.000Z\", s\"01KXJE0FQ0JWPRVWHCAFBP1G4K\" ]",
      "lat": 49.4906,
      "lon": 11.1703,
      "type": "WIND",
      "time": "2026-07-14T15:42:00.000Z",
      "country": "DE",
      "place": null,
      "description": null,
      "info_source": null,
      "references": null
    },
    {
      "id": "weather_events:[ d\"2026-07-14T15:41:00.000Z\", s\"01KXJJVGR5C5BYNNZKR7KRCPSW\" ]",
      "lat": 49.525,
      "lon": 11.1445,
      "type": "HAIL",
      "time": "2026-07-14T15:41:00.000Z",
      "country": "DE",
      "place": null,
      "description": null,
      "info_source": null,
      "references": null
    },
    {
      "id": "weather_events:[ d\"2026-07-14T15:40:00.000Z\", s\"01KXJFDJWQGJ7PY6BVA6DXJMW8\" ]",
      "lat": 49.5056,
      "lon": 11.1201,
      "type": "HAIL",
      "time": "2026-07-14T15:40:00.000Z",
      "country": "DE",
      "place": null,
      "description": null,
      "info_source": null,
      "references": null
    },
    {
      "id": "weather_events:[ d\"2026-07-14T15:40:00.000Z\", s\"01KXJET237FBHVTEC5WRVWPVZY\" ]",
      "lat": 49.4578,
      "lon": 11.117,
      "type": "WIND",
      "time": "2026-07-14T15:40:00.000Z",
      "country": "DE",
      "place": null,
      "description": null,
      "info_source": null,
      "references": null
    },
    {
      "id": "weather_events:[ d\"2026-07-14T15:39:00.000Z\", s\"01KXGXFMN7KA9AWFNVVCWEBP8P\" ]",
      "lat": 51.2274,
      "lon": 10.5738,
      "type": "HAIL",
      "time": "2026-07-14T15:39:00.000Z",
      "country": "DE",
      "place": null,
      "description": null,
      "info_source": null,
      "references": null
    },
    {
      "id": "weather_events:[ d\"2026-07-14T15:38:00.000Z\", s\"01KXJJSQ1ZDYHPEJCNDKQSV7P7\" ]",
      "lat": 49.5014,
      "lon": 11.1103,
      "type": "HAIL",
      "time": "2026-07-14T15:38:00.000Z",
      "country": "DE",
      "place": null,
      "description": null,
      "info_source": null,
      "references": null
    },
    {
      "id": "weather_events:[ d\"2026-07-14T15:38:00.000Z\", s\"01KXJF481KX95S22MPTCW7YQEE\" ]",
      "lat": 49.528,
      "lon": 11.1592,
      "type": "HAIL",
      "time": "2026-07-14T15:38:00.000Z",
      "country": "DE",
      "place": null,
      "description": null,
      "info_source": null,
      "references": null
    },
    {
      "id": "weather_events:[ d\"2026-07-14T15:36:00.000Z\", s\"01KXJJPZ9YE6WC2V2QGF1XNJTY\" ]",
      "lat": 49.872,
      "lon": 10.5669,
      "type": "HAIL",
      "time": "2026-07-14T15:36:00.000Z",
      "country": "DE",
      "place": null,
      "description": null,
      "info_source": null,
      "references": null
    },
    {
      "id": "weather_events:[ d\"2026-07-14T15:36:00.000Z\", s\"01KXJJMQSGGGBPYS4BS6EPWDA1\" ]",
      "lat": 49.8518,
      "lon": 10.4979,
      "type": "HAIL",
      "time": "2026-07-14T15:36:00.000Z",
      "country": "DE",
      "place": null,
      "description": null,
      "info_source": null,
      "references": null
    },
    {
      "id": "weather_events:[ d\"2026-07-14T15:36:00.000Z\", s\"01KXJJE5MYY530G4NRG2ZM4JHK\" ]",
      "lat": 49.8702,
      "lon": 10.5286,
      "type": "HAIL",
      "time": "2026-07-14T15:36:00.000Z",
      "country": "DE",
      "place": null,
      "description": null,
      "info_source": null,
      "references": null
    },
    {
      "id": "weather_events:[ d\"2026-07-14T15:36:00.000Z\", s\"01KXJEESQ42RKPCPKD4878H44G\" ]",
      "lat": 49.5326,
      "lon": 11.1562,
      "type": "WIND",
      "time": "2026-07-14T15:36:00.000Z",
      "country": "DE",
      "place": null,
      "description": null,
      "info_source": null,
      "references": null
    },
    {
      "id": "weather_events:[ d\"2026-07-14T15:36:00.000Z\", s\"01KXJEEE2H2NWF1GEP0GC6XRVG\" ]",
      "lat": 49.5765,
      "lon": 11.2059,
      "type": "WIND",
      "time": "2026-07-14T15:36:00.000Z",
      "country": "DE",
      "place": null,
      "description": null,
      "info_source": null,
      "references": null
    },
    {
      "id": "weather_events:[ d\"2026-07-14T15:35:00.000Z\", s\"01KXJJ9K6K46K9GDZ7H7M6864R\" ]",
      "lat": 50.0565,
      "lon": 9.6899,
      "type": "HAIL",
      "time": "2026-07-14T15:35:00.000Z",
      "country": "DE",
      "place": null,
      "description": null,
      "info_source": null,
      "references": null
    },
    {
      "id": "weather_events:[ d\"2026-07-14T15:35:00.000Z\", s\"01KXJJ82FP7HDF7J18NR4JV1QT\" ]",
      "lat": 50.1961,
      "lon": 9.9267,
      "type": "HAIL",
      "time": "2026-07-14T15:35:00.000Z",
      "country": "DE",
      "place": null,
      "description": null,
      "info_source": null,
      "references": null
    },
    {
      "id": "weather_events:[ d\"2026-07-14T15:35:00.000Z\", s\"01KXJE3845XA9N557C21XRAXZ1\" ]",
      "lat": 49.491,
      "lon": 11.083,
      "type": "WIND",
      "time": "2026-07-14T15:35:00.000Z",
      "country": "DE",
      "place": null,
      "description": null,
      "info_source": null,
      "references": null
    },
    {
      "id": "weather_events:[ d\"2026-07-14T15:35:00.000Z\", s\"01KXJCF0Q5BG6VP8P1NNNRA01P\" ]",
      "lat": 51.2094,
      "lon": 10.4589,
      "type": "WIND",
      "time": "2026-07-14T15:35:00.000Z",
      "country": "DE",
      "place": null,
      "description": null,
      "info_source": null,
      "references": null
    },
    {
      "id": "weather_events:[ d\"2026-07-14T15:34:00.000Z\", s\"01KXJJJPKAYQCM7SG2YTCN41HX\" ]",
      "lat": 49.1155,
      "lon": 10.8406,
      "type": "HAIL",
      "time": "2026-07-14T15:34:00.000Z",
      "country": "DE",
      "place": null,
      "description": null,
      "info_source": null,
      "references": null
    },
    {
      "id": "weather_events:[ d\"2026-07-14T15:34:00.000Z\", s\"01KXJEFDTRF4TS19VDQAY1C3FD\" ]",
      "lat": 49.5582,
      "lon": 11.1327,
      "type": "WIND",
      "time": "2026-07-14T15:34:00.000Z",
      "country": "DE",
      "place": null,
      "description": null,
      "info_source": null,
      "references": null
    },
    {
      "id": "weather_events:[ d\"2026-07-14T15:33:00.000Z\", s\"01KXJCBQW10JE0CFK57FCHKK2X\" ]",
      "lat": 51.2347,
      "lon": 10.4585,
      "type": "WIND",
      "time": "2026-07-14T15:33:00.000Z",
      "country": "DE",
      "place": null,
      "description": null,
      "info_source": null,
      "references": null
    },
    {
      "id": "weather_events:[ d\"2026-07-14T15:31:00.000Z\", s\"01KXJJBFTAH464G8AMR1NZE9DF\" ]",
      "lat": 49.5345,
      "lon": 11.0439,
      "type": "HAIL",
      "time": "2026-07-14T15:31:00.000Z",
      "country": "DE",
      "place": null,
      "description": null,
      "info_source": null,
      "references": null
    },
    {
      "id": "weather_events:[ d\"2026-07-14T15:31:00.000Z\", s\"01KXJHZ05Q3BZ8VEA5TCFFMT3Z\" ]",
      "lat": 49.1201,
      "lon": 10.7666,
      "type": "HAIL",
      "time": "2026-07-14T15:31:00.000Z",
      "country": "DE",
      "place": null,
      "description": null,
      "info_source": null,
      "references": null
    },
    {
      "id": "weather_events:[ d\"2026-07-14T15:30:00.000Z\", s\"01KXJJ51HYTNP5RXH8XQKGA810\" ]",
      "lat": 49.8607,
      "lon": 10.4099,
      "type": "HAIL",
      "time": "2026-07-14T15:30:00.000Z",
      "country": "DE",
      "place": null,
      "description": null,
      "info_source": null,
      "references": null
    },
    {
      "id": "weather_events:[ d\"2026-07-14T15:30:00.000Z\", s\"01KXJHSCWCFC9N3ASGV5036NTS\" ]",
      "lat": 49.8742,
      "lon": 10.4017,
      "type": "HAIL",
      "time": "2026-07-14T15:30:00.000Z",
      "country": "DE",
      "place": null,
      "description": null,
      "info_source": null,
      "references": null
    },
    {
      "id": "weather_events:[ d\"2026-07-14T15:30:00.000Z\", s\"01KXJFK6CWPEJ43ZRH74AXY2ZQ\" ]",
      "lat": 49.5904,
      "lon": 11.0112,
      "type": "PRECIP",
      "time": "2026-07-14T15:30:00.000Z",
      "country": "DE",
      "place": null,
      "description": null,
      "info_source": null,
      "references": null
    },
    {
      "id": "weather_events:[ d\"2026-07-14T15:29:00.000Z\", s\"01KXJJZET8K14HRDE2KN8RX520\" ]",
      "lat": 50.0865,
      "lon": 9.6615,
      "type": "HAIL",
      "time": "2026-07-14T15:29:00.000Z",
      "country": "DE",
      "place": null,
      "description": null,
      "info_source": null,
      "references": null
    },
    {
      "id": "weather_events:[ d\"2026-07-14T15:28:00.000Z\", s\"01KXJHK35GFG5MSN7H2PP92F38\" ]",
      "lat": 49.5715,
      "lon": 11.042,
      "type": "HAIL",
      "time": "2026-07-14T15:28:00.000Z",
      "country": "DE",
      "place": null,
      "description": null,
      "info_source": null,
      "references": null
    },
    {
      "id": "weather_events:[ d\"2026-07-14T15:27:00.000Z\", s\"01KXJHWK9VDQRHCX5B65HQN2QB\" ]",
      "lat": 49.5495,
      "lon": 11.033,
      "type": "HAIL",
      "time": "2026-07-14T15:27:00.000Z",
      "country": "DE",
      "place": null,
      "description": null,
      "info_source": null,
      "references": null
    },
    {
      "id": "weather_events:[ d\"2026-07-14T15:27:00.000Z\", s\"01KXJHNR3XMRZJTZGGZJJJ87GB\" ]",
      "lat": 50.2101,
      "lon": 9.8289,
      "type": "HAIL",
      "time": "2026-07-14T15:27:00.000Z",
      "country": "DE",
      "place": null,
      "description": null,
      "info_source": null,
      "references": null
    },
    {
      "id": "weather_events:[ d\"2026-07-14T15:26:00.000Z\", s\"01KXJJW9VND2EJAKHN5PQ696R4\" ]",
      "lat": 49.5508,
      "lon": 11.0189,
      "type": "HAIL",
      "time": "2026-07-14T15:26:00.000Z",
      "country": "DE",
      "place": null,
      "description": null,
      "info_source": null,
      "references": null
    },
    {
      "id": "weather_events:[ d\"2026-07-14T15:25:00.000Z\", s\"01KXK38KAY67Q62ZCTGKVE9T1C\" ]",
      "lat": 46.6089,
      "lon": 15.9377,
      "type": "LIGHTNING",
      "time": "2026-07-14T15:25:00.000Z",
      "country": "SI",
      "place": null,
      "description": null,
      "info_source": null,
      "references": null
    },
    {
      "id": "weather_events:[ d\"2026-07-14T15:25:00.000Z\", s\"01KXJFA9CMDADF9V018TWEEYS1\" ]",
      "lat": 49.5199,
      "lon": 11.0274,
      "type": "WIND",
      "time": "2026-07-14T15:25:00.000Z",
      "country": "DE",
      "place": null,
      "description": null,
      "info_source": null,
      "references": null
    },
    {
      "id": "weather_events:[ d\"2026-07-14T15:21:00.000Z\", s\"01KXJHDWF7FT0QX71YW6SRB5ZY\" ]",
      "lat": 49.6048,
      "lon": 11.0563,
      "type": "HAIL",
      "time": "2026-07-14T15:21:00.000Z",
      "country": "DE",
      "place": null,
      "description": null,
      "info_source": null,
      "references": null
    },
    {
      "id": "weather_events:[ d\"2026-07-14T15:20:00.000Z\", s\"01KXJHDHNH910242HH8WV3ZHNX\" ]",
      "lat": 49.5995,
      "lon": 11.0415,
      "type": "HAIL",
      "time": "2026-07-14T15:20:00.000Z",
      "country": "DE",
      "place": null,
      "description": null,
      "info_source": null,
      "references": null
    },
    {
      "id": "weather_events:[ d\"2026-07-14T15:20:00.000Z\", s\"01KXJFGV4Z5CEJWJZS14G0QNVK\" ]",
      "lat": 49.5513,
      "lon": 10.9913,
      "type": "WIND",
      "time": "2026-07-14T15:20:00.000Z",
      "country": "DE",
      "place": null,
      "description": null,
      "info_source": null,
      "references": null
    },
    {
      "id": "weather_events:[ d\"2026-07-14T15:20:00.000Z\", s\"01KXJFFN92078W6J5X6FPGHSAE\" ]",
      "lat": 49.5126,
      "lon": 10.9748,
      "type": "WIND",
      "time": "2026-07-14T15:20:00.000Z",
      "country": "DE",
      "place": null,
      "description": null,
      "info_source": null,
      "references": null
    },
    {
      "id": "weather_events:[ d\"2026-07-14T15:20:00.000Z\", s\"01KXJEWK4X8C6Y5JX3NSY5M0GY\" ]",
      "lat": 49.5341,
      "lon": 11.0242,
      "type": "WIND",
      "time": "2026-07-14T15:20:00.000Z",
      "country": "DE",
      "place": null,
      "description": null,
      "info_source": null,
      "references": null
    },
    {
      "id": "weather_events:[ d\"2026-07-14T15:20:00.000Z\", s\"01KXJEV9K2S4A85PCG419GK1X5\" ]",
      "lat": 49.5977,
      "lon": 11.0037,
      "type": "WIND",
      "time": "2026-07-14T15:20:00.000Z",
      "country": "DE",
      "place": null,
      "description": null,
      "info_source": null,
      "references": null
    },
    {
      "id": "weather_events:[ d\"2026-07-14T15:20:00.000Z\", s\"01KXJC8TR31QFTZMGQJA4VYFH5\" ]",
      "lat": 51.3124,
      "lon": 10.4091,
      "type": "PRECIP",
      "time": "2026-07-14T15:20:00.000Z",
      "country": "DE",
      "place": null,
      "description": null,
      "info_source": null,
      "references": null
    },
    {
      "id": "weather_events:[ d\"2026-07-14T15:20:00.000Z\", s\"01KXJC892SKDMZBHM9ASKVCDJX\" ]",
      "lat": 51.2951,
      "lon": 10.3513,
      "type": "PRECIP",
      "time": "2026-07-14T15:20:00.000Z",
      "country": "DE",
      "place": null,
      "description": null,
      "info_source": null,
      "references": null
    },
    {
      "id": "weather_events:[ d\"2026-07-14T15:18:00.000Z\", s\"01KXJHCJBS9QJFEDQS39GPREV1\" ]",
      "lat": 49.5722,
      "lon": 10.9942,
      "type": "HAIL",
      "time": "2026-07-14T15:18:00.000Z",
      "country": "DE",
      "place": null,
      "description": null,
      "info_source": null,
      "references": null
    },
    {
      "id": "weather_events:[ d\"2026-07-14T15:18:00.000Z\", s\"01KXJHBWT4H9FB7MAAWB6XA05W\" ]",
      "lat": 49.5794,
      "lon": 11.0116,
      "type": "HAIL",
      "time": "2026-07-14T15:18:00.000Z",
      "country": "DE",
      "place": null,
      "description": null,
      "info_source": null,
      "references": null
    },
    {
      "id": "weather_events:[ d\"2026-07-14T15:18:00.000Z\", s\"01KXGYH4RTTBX1FZ9X35J4XD51\" ]",
      "lat": 50.526,
      "lon": 9.1753,
      "type": "HAIL",
      "time": "2026-07-14T15:18:00.000Z",
      "country": "DE",
      "place": null,
      "description": null,
      "info_source": null,
      "references": null
    },
    {
      "id": "weather_events:[ d\"2026-07-14T15:17:00.000Z\", s\"01KXJC8MG9259H49F6SKZ7E5MA\" ]",
      "lat": 51.3096,
      "lon": 10.3406,
      "type": "PRECIP",
      "time": "2026-07-14T15:17:00.000Z",
      "country": "DE",
      "place": null,
      "description": null,
      "info_source": null,
      "references": null
    },
    {
      "id": "weather_events:[ d\"2026-07-14T15:11:00.000Z\", s\"01KXJCHDWEKS4WSBSANN4VPRJ3\" ]",
      "lat": 51.3318,
      "lon": 10.3857,
      "type": "WIND",
      "time": "2026-07-14T15:11:00.000Z",
      "country": "DE",
      "place": null,
      "description": null,
      "info_source": null,
      "references": null
    },
    {
      "id": "weather_events:[ d\"2026-07-14T15:10:00.000Z\", s\"01KXJH7S5AP2CAV1CK5A9S5VAM\" ]",
      "lat": 49.9438,
      "lon": 10.2352,
      "type": "HAIL",
      "time": "2026-07-14T15:10:00.000Z",
      "country": "DE",
      "place": null,
      "description": null,
      "info_source": null,
      "references": null
    },
    {
      "id": "weather_events:[ d\"2026-07-14T15:06:00.000Z\", s\"01KXJD4110XAN3Q9N78T7ASSC0\" ]",
      "lat": 51.3536,
      "lon": 10.3532,
      "type": "WIND",
      "time": "2026-07-14T15:06:00.000Z",
      "country": "DE",
      "place": null,
      "description": null,
      "info_source": null,
      "references": null
    },
    {
      "id": "weather_events:[ d\"2026-07-14T15:06:00.000Z\", s\"01KXJC5ZT6BQ05MB83AEMAXS85\" ]",
      "lat": 51.3878,
      "lon": 10.3213,
      "type": "PRECIP",
      "time": "2026-07-14T15:06:00.000Z",
      "country": "DE",
      "place": null,
      "description": null,
      "info_source": null,
      "references": null
    },
    {
      "id": "weather_events:[ d\"2026-07-14T15:05:00.000Z\", s\"01KXJH9GMQR6R1WVJHT10BBAS5\" ]",
      "lat": 49.9816,
      "lon": 10.216,
      "type": "HAIL",
      "time": "2026-07-14T15:05:00.000Z",
      "country": "DE",
      "place": null,
      "description": null,
      "info_source": null,
      "references": null
    },
    {
      "id": "weather_events:[ d\"2026-07-14T15:05:00.000Z\", s\"01KXJC70NRJQM8PJSFGTPJE53Q\" ]",
      "lat": 51.4046,
      "lon": 10.3393,
      "type": "PRECIP",
      "time": "2026-07-14T15:05:00.000Z",
      "country": "DE",
      "place": null,
      "description": null,
      "info_source": null,
      "references": null
    },
    {
      "id": "weather_events:[ d\"2026-07-14T15:05:00.000Z\", s\"01KXJC6PYTA5DGF40VC6KND32B\" ]",
      "lat": 51.4216,
      "lon": 10.3611,
      "type": "PRECIP",
      "time": "2026-07-14T15:05:00.000Z",
      "country": "DE",
      "place": null,
      "description": null,
      "info_source": null,
      "references": null
    },
    {
      "id": "weather_events:[ d\"2026-07-14T15:03:00.000Z\", s\"01KXJH4NPF98G79RWSF0VDBV58\" ]",
      "lat": 50.1661,
      "lon": 9.7888,
      "type": "HAIL",
      "time": "2026-07-14T15:03:00.000Z",
      "country": "DE",
      "place": null,
      "description": null,
      "info_source": null,
      "references": null
    },
    {
      "id": "weather_events:[ d\"2026-07-14T15:01:00.000Z\", s\"01KXJD5CAEXCEQJFF9B2SWWJXY\" ]",
      "lat": 51.351,
      "lon": 10.3059,
      "type": "WIND",
      "time": "2026-07-14T15:01:00.000Z",
      "country": "DE",
      "place": null,
      "description": null,
      "info_source": null,
      "references": null
    },
    {
      "id": "weather_events:[ d\"2026-07-14T15:00:00.000Z\", s\"01KXHD3FHFJATJJXTQCTHSNB41\" ]",
      "lat": 47.8734,
      "lon": 16.2677,
      "type": "PRECIP",
      "time": "2026-07-14T15:00:00.000Z",
      "country": "AT",
      "place": null,
      "description": null,
      "info_source": null,
      "references": null
    },
    {
      "id": "weather_events:[ d\"2026-07-14T15:00:00.000Z\", s\"01KXGYEESF67JKVJXTEFKK2PMN\" ]",
      "lat": 50.1882,
      "lon": 9.4719,
      "type": "HAIL",
      "time": "2026-07-14T15:00:00.000Z",
      "country": "DE",
      "place": null,
      "description": null,
      "info_source": null,
      "references": null
    },
    {
      "id": "weather_events:[ d\"2026-07-14T15:00:00.000Z\", s\"01KXGXD0JKQKKVT7T856TFBPQF\" ]",
      "lat": 51.3811,
      "lon": 10.318,
      "type": "HAIL",
      "time": "2026-07-14T15:00:00.000Z",
      "country": "DE",
      "place": null,
      "description": null,
      "info_source": null,
      "references": null
    },
    {
      "id": "weather_events:[ d\"2026-07-14T14:56:00.000Z\", s\"01KXJD6255NM640KQE2F7YWN95\" ]",
      "lat": 51.4059,
      "lon": 10.3344,
      "type": "WIND",
      "time": "2026-07-14T14:56:00.000Z",
      "country": "DE",
      "place": null,
      "description": null,
      "info_source": null,
      "references": null
    },
    {
      "id": "weather_events:[ d\"2026-07-14T14:55:00.000Z\", s\"01KXJD34K6HFZ6J4FBXN7BHDHY\" ]",
      "lat": 51.4437,
      "lon": 10.3331,
      "type": "WIND",
      "time": "2026-07-14T14:55:00.000Z",
      "country": "DE",
      "place": null,
      "description": null,
      "info_source": null,
      "references": null
    },
    {
      "id": "weather_events:[ d\"2026-07-14T14:50:00.000Z\", s\"01KXHB5JNNJ671QTJSBFEWTRD8\" ]",
      "lat": 47.85909,
      "lon": 16.32179,
      "type": "PRECIP",
      "time": "2026-07-14T14:50:00.000Z",
      "country": "AT",
      "place": null,
      "description": null,
      "info_source": null,
      "references": null
    },
    {
      "id": "weather_events:[ d\"2026-07-14T14:50:00.000Z\", s\"01KXHB30X6VMPDS14TJKDBQ0GX\" ]",
      "lat": 47.89937,
      "lon": 16.24101,
      "type": "PRECIP",
      "time": "2026-07-14T14:50:00.000Z",
      "country": "AT",
      "place": null,
      "description": null,
      "info_source": null,
      "references": null
    },
    {
      "id": "weather_events:[ d\"2026-07-14T14:46:00.000Z\", s\"01KXGZ28M61VFKK1H40DRCN1KM\" ]",
      "lat": 52.1859,
      "lon": 10.4937,
      "type": "HAIL",
      "time": "2026-07-14T14:46:00.000Z",
      "country": "DE",
      "place": null,
      "description": null,
      "info_source": null,
      "references": null
    },
    {
      "id": "weather_events:[ d\"2026-07-14T14:40:00.000Z\", s\"01KXJH1MGXZFC3NQDBJ2REGJNC\" ]",
      "lat": 50.2005,
      "lon": 9.9604,
      "type": "HAIL",
      "time": "2026-07-14T14:40:00.000Z",
      "country": "DE",
      "place": null,
      "description": null,
      "info_source": null,
      "references": null
    },
    {
      "id": "weather_events:[ d\"2026-07-14T14:40:00.000Z\", s\"01KXJ8PXZ1P3XZV0SR18TNMTBG\" ]",
      "lat": 52.3922,
      "lon": 10.7503,
      "type": "PRECIP",
      "time": "2026-07-14T14:40:00.000Z",
      "country": "DE",
      "place": null,
      "description": null,
      "info_source": null,
      "references": null
    },
    {
      "id": "weather_events:[ d\"2026-07-14T14:39:00.000Z\", s\"01KXGX55G4C5D6GZBFJAE9A8EN\" ]",
      "lat": 47.0126,
      "lon": 8.3213,
      "type": "HAIL",
      "time": "2026-07-14T14:39:00.000Z",
      "country": "CH",
      "place": null,
      "description": null,
      "info_source": null,
      "references": null
    },
    {
      "id": "weather_events:[ d\"2026-07-14T14:30:00.000Z\", s\"01KXHCHV4ZN6XSCE3SFD62Z1FK\" ]",
      "lat": 47.832,
      "lon": 16.231,
      "type": "WIND",
      "time": "2026-07-14T14:30:00.000Z",
      "country": "AT",
      "place": null,
      "description": null,
      "info_source": null,
      "references": null
    },
    {
      "id": "weather_events:[ d\"2026-07-14T14:30:00.000Z\", s\"01KXHBMC1K80ZMG2EV7EGZXTQG\" ]",
      "lat": 47.8663,
      "lon": 16.2484,
      "type": "WIND",
      "time": "2026-07-14T14:30:00.000Z",
      "country": "AT",
      "place": null,
      "description": null,
      "info_source": null,
      "references": null
    },
    {
      "id": "weather_events:[ d\"2026-07-14T14:30:00.000Z\", s\"01KXHBA5YB1C08SJ7M7ZESYZJS\" ]",
      "lat": 47.83229,
      "lon": 16.07139,
      "type": "PRECIP",
      "time": "2026-07-14T14:30:00.000Z",
      "country": "AT",
      "place": null,
      "description": null,
      "info_source": null,
      "references": null
    },
    {
      "id": "weather_events:[ d\"2026-07-14T14:29:00.000Z\", s\"01KXJ9MA5T7DNSQJGPES9DVXQE\" ]",
      "lat": 46.5109,
      "lon": 15.0218,
      "type": "HAIL",
      "time": "2026-07-14T14:29:00.000Z",
      "country": "SI",
      "place": null,
      "description": null,
      "info_source": null,
      "references": null
    },
    {
      "id": "weather_events:[ d\"2026-07-14T14:24:00.000Z\", s\"01KXJ9Q2VSND1G0YZP0CRRB6HC\" ]",
      "lat": 46.5194,
      "lon": 14.9856,
      "type": "HAIL",
      "time": "2026-07-14T14:24:00.000Z",
      "country": "SI",
      "place": null,
      "description": null,
      "info_source": null,
      "references": null
    },
    {
      "id": "weather_events:[ d\"2026-07-14T14:17:00.000Z\", s\"01KXJA3CN0N3C37HZ7NKFRNHDE\" ]",
      "lat": 46.5203,
      "lon": 14.9568,
      "type": "HAIL",
      "time": "2026-07-14T14:17:00.000Z",
      "country": "SI",
      "place": null,
      "description": null,
      "info_source": null,
      "references": null
    },
    {
      "id": "weather_events:[ d\"2026-07-14T14:15:00.000Z\", s\"01KXJAFFN2Q94VD99P34J8HW99\" ]",
      "lat": 46.544,
      "lon": 14.97,
      "type": "HAIL",
      "time": "2026-07-14T14:15:00.000Z",
      "country": "SI",
      "place": null,
      "description": null,
      "info_source": null,
      "references": null
    },
    {
      "id": "weather_events:[ d\"2026-07-14T14:15:00.000Z\", s\"01KXJACMKPV4RA3T474KJB13QN\" ]",
      "lat": 46.5388,
      "lon": 14.9648,
      "type": "HAIL",
      "time": "2026-07-14T14:15:00.000Z",
      "country": "SI",
      "place": null,
      "description": null,
      "info_source": null,
      "references": null
    },
    {
      "id": "weather_events:[ d\"2026-07-14T14:14:00.000Z\", s\"01KXGYZKDE701WNCGX5QKMWV7S\" ]",
      "lat": 52.3278,
      "lon": 10.7338,
      "type": "HAIL",
      "time": "2026-07-14T14:14:00.000Z",
      "country": "DE",
      "place": null,
      "description": null,
      "info_source": null,
      "references": null
    },
    {
      "id": "weather_events:[ d\"2026-07-14T14:12:00.000Z\", s\"01KXJA9EA59TSNQ48QTVHQGG4E\" ]",
      "lat": 46.545,
      "lon": 14.9343,
      "type": "HAIL",
      "time": "2026-07-14T14:12:00.000Z",
      "country": "SI",
      "place": null,
      "description": null,
      "info_source": null,
      "references": null
    },
    {
      "id": "weather_events:[ d\"2026-07-14T14:07:00.000Z\", s\"01KXGG22YQMEZ2GPP1ZB814TDX\" ]",
      "lat": 49.956,
      "lon": 15.082,
      "type": "PRECIP",
      "time": "2026-07-14T14:07:00.000Z",
      "country": "CZ",
      "place": "Bečváry",
      "description": "PWS recorded a rain amount of 41,1 mm in 58 minutes.",
      "info_source": [
        "WWW",
        "WXSVC"
      ],
      "references": [
        "\"Meteo1 - IBEVRY2\", Wunderground, date of access: 14 JUL 2026."
      ]
    },
    {
      "id": "weather_events:[ d\"2026-07-14T14:04:00.000Z\", s\"01KXGG034JD5R5CTF8K4AGW3HQ\" ]",
      "lat": 49.961,
      "lon": 15.034,
      "type": "PRECIP",
      "time": "2026-07-14T14:04:00.000Z",
      "country": "CZ",
      "place": "Zásmuky",
      "description": "PWS recorded a rain amount of 56,6 mm in 50 minutes.",
      "info_source": [
        "WWW",
        "WXSVC"
      ],
      "references": [
        "\"Meteostanice - IZSMUK2\", Wunderground, date of access: 14 JUL 2026."
      ]
    },
    {
      "id": "weather_events:[ d\"2026-07-14T14:00:00.000Z\", s\"01KXK5CGV62TH9GGBPCE9ACK3V\" ]",
      "lat": 50.5648,
      "lon": 20.0538,
      "type": "WIND",
      "time": "2026-07-14T14:00:00.000Z",
      "country": "PL",
      "place": null,
      "description": null,
      "info_source": null,
      "references": null
    },
    {
      "id": "weather_events:[ d\"2026-07-14T14:00:00.000Z\", s\"01KXHE55DKTB9GYYQHKWJXX265\" ]",
      "lat": 46.60629,
      "lon": 14.36387,
      "type": "WIND",
      "time": "2026-07-14T14:00:00.000Z",
      "country": "AT",
      "place": null,
      "description": null,
      "info_source": null,
      "references": null
    },
    {
      "id": "weather_events:[ d\"2026-07-14T13:54:00.000Z\", s\"01KXGER9ZDVX4M2MZT3XA2MMCP\" ]",
      "lat": 51.1388,
      "lon": 17.0304,
      "type": "PRECIP",
      "time": "2026-07-14T13:54:00.000Z",
      "country": "PL",
      "place": null,
      "description": null,
      "info_source": null,
      "references": null
    },
    {
      "id": "weather_events:[ d\"2026-07-14T13:50:00.000Z\", s\"01KXGZ6NTJDM2RZG3AWEAX09YD\" ]",
      "lat": 51.057,
      "lon": 14.481,
      "type": "HAIL",
      "time": "2026-07-14T13:50:00.000Z",
      "country": "DE",
      "place": null,
      "description": null,
      "info_source": null,
      "references": null
    },
    {
      "id": "weather_events:[ d\"2026-07-14T13:45:00.000Z\", s\"01KXHDZZS1Z1JA8K75KXEBVY62\" ]",
      "lat": 46.64221,
      "lon": 13.82081,
      "type": "WIND",
      "time": "2026-07-14T13:45:00.000Z",
      "country": "AT",
      "place": null,
      "description": null,
      "info_source": null,
      "references": null
    },
    {
      "id": "weather_events:[ d\"2026-07-14T13:45:00.000Z\", s\"01KXHDK1XQ6EX0KZ8JCHGP1WYS\" ]",
      "lat": 46.61623,
      "lon": 13.85105,
      "type": "PRECIP",
      "time": "2026-07-14T13:45:00.000Z",
      "country": "AT",
      "place": null,
      "description": null,
      "info_source": null,
      "references": null
    },
    {
      "id": "weather_events:[ d\"2026-07-14T13:45:00.000Z\", s\"01KXGZ8AYSVKJHR6FQF06TJ1WC\" ]",
      "lat": 51.0818,
      "lon": 14.4554,
      "type": "HAIL",
      "time": "2026-07-14T13:45:00.000Z",
      "country": "DE",
      "place": null,
      "description": null,
      "info_source": null,
      "references": null
    },
    {
      "id": "weather_events:[ d\"2026-07-14T13:40:00.000Z\", s\"01KXHC9K2V0BQX31GFDF0ZJ5RW\" ]",
      "lat": 47.819,
      "lon": 15.548,
      "type": "WIND",
      "time": "2026-07-14T13:40:00.000Z",
      "country": "AT",
      "place": null,
      "description": null,
      "info_source": null,
      "references": null
    },
    {
      "id": "weather_events:[ d\"2026-07-14T13:20:00.000Z\", s\"01KXK5AC2WM7B0V4C6TB86AKCZ\" ]",
      "lat": 50.8464,
      "lon": 20.6173,
      "type": "LIGHTNING",
      "time": "2026-07-14T13:20:00.000Z",
      "country": "PL",
      "place": null,
      "description": null,
      "info_source": null,
      "references": null
    },
    {
      "id": "weather_events:[ d\"2026-07-14T13:20:00.000Z\", s\"01KXK4MYAWP3BV8PVJEKGWKQHP\" ]",
      "lat": 51.1788,
      "lon": 15.5609,
      "type": "WIND",
      "time": "2026-07-14T13:20:00.000Z",
      "country": "PL",
      "place": null,
      "description": null,
      "info_source": null,
      "references": null
    },
    {
      "id": "weather_events:[ d\"2026-07-14T13:10:00.000Z\", s\"01KXK0Q636J15VG2XWBFB3NWG6\" ]",
      "lat": 49.507,
      "lon": 22.5477,
      "type": "PRECIP",
      "time": "2026-07-14T13:10:00.000Z",
      "country": "PL",
      "place": null,
      "description": null,
      "info_source": null,
      "references": null
    },
    {
      "id": "weather_events:[ d\"2026-07-14T13:10:00.000Z\", s\"01KXGEZVR3ACZ19FGHE9KPF9H8\" ]",
      "lat": 50.2781,
      "lon": 19.1343,
      "type": "PRECIP",
      "time": "2026-07-14T13:10:00.000Z",
      "country": "PL",
      "place": null,
      "description": null,
      "info_source": null,
      "references": null
    },
    {
      "id": "weather_events:[ d\"2026-07-14T13:05:00.000Z\", s\"01KXK2S9WM4FGHN2FWB32EXQ6P\" ]",
      "lat": 50.5448,
      "lon": 16.1806,
      "type": "HAIL",
      "time": "2026-07-14T13:05:00.000Z",
      "country": "CZ",
      "place": "Česká Metuje",
      "description": "large amount of hailstones with diameter about 2 cm | time based on radar measurement",
      "info_source": [
        "EVTPHOTO"
      ],
      "references": [
        " Lovci bouřek, extrémní počasí a jiné jevy (on Facebook), 14 JUL 2026 "
      ]
    },
    {
      "id": "weather_events:[ d\"2026-07-14T13:05:00.000Z\", s\"01KXGEW4J0TFWK2SYFEXHR2F2W\" ]",
      "lat": 50.2034,
      "lon": 19.2722,
      "type": "PRECIP",
      "time": "2026-07-14T13:05:00.000Z",
      "country": "PL",
      "place": null,
      "description": null,
      "info_source": null,
      "references": null
    },
    {
      "id": "weather_events:[ d\"2026-07-14T13:00:00.000Z\", s\"01KXHEAQTRTCZ5NAXSQSBQXTPQ\" ]",
      "lat": 46.62676,
      "lon": 13.37054,
      "type": "WIND",
      "time": "2026-07-14T13:00:00.000Z",
      "country": "AT",
      "place": null,
      "description": null,
      "info_source": null,
      "references": null
    },
    {
      "id": "weather_events:[ d\"2026-07-14T12:59:00.000Z\", s\"01KXGC9KNSR1PNXH41NWQP99ZG\" ]",
      "lat": 50.334,
      "lon": 16.63,
      "type": "PRECIP",
      "time": "2026-07-14T12:59:00.000Z",
      "country": "PL",
      "place": null,
      "description": null,
      "info_source": null,
      "references": null
    },
    {
      "id": "weather_events:[ d\"2026-07-14T12:59:00.000Z\", s\"01KXGC6R10H10GS1HVM71XG8FC\" ]",
      "lat": 50.28,
      "lon": 19.198,
      "type": "PRECIP",
      "time": "2026-07-14T12:59:00.000Z",
      "country": "PL",
      "place": null,
      "description": null,
      "info_source": null,
      "references": null
    },
    {
      "id": "weather_events:[ d\"2026-07-14T12:50:00.000Z\", s\"01KXGDYVJ9T51ZCJCSWFQGXC7S\" ]",
      "lat": 49.687,
      "lon": 22.481,
      "type": "PRECIP",
      "time": "2026-07-14T12:50:00.000Z",
      "country": "PL",
      "place": null,
      "description": null,
      "info_source": null,
      "references": null
    },
    {
      "id": "weather_events:[ d\"2026-07-14T12:50:00.000Z\", s\"01KXGCQZZ3VVY0SC89MP6W4PS7\" ]",
      "lat": 50.276,
      "lon": 16.538,
      "type": "PRECIP",
      "time": "2026-07-14T12:50:00.000Z",
      "country": "PL",
      "place": null,
      "description": null,
      "info_source": null,
      "references": null
    },
    {
      "id": "weather_events:[ d\"2026-07-14T12:49:00.000Z\", s\"01KXGCAYRX2VZ45PDDFS8QFRQQ\" ]",
      "lat": 50.278,
      "lon": 16.537,
      "type": "PRECIP",
      "time": "2026-07-14T12:49:00.000Z",
      "country": "PL",
      "place": null,
      "description": null,
      "info_source": null,
      "references": null
    },
    {
      "id": "weather_events:[ d\"2026-07-14T12:45:00.000Z\", s\"01KXK3A2BEAAWD31F34AJHF1W2\" ]",
      "lat": 50.6245,
      "lon": 16.1286,
      "type": "HAIL",
      "time": "2026-07-14T12:45:00.000Z",
      "country": "CZ",
      "place": "Křížový vrch, Adršpach",
      "description": "hailstones with diameter up to 3 cm | time based on radar measurement",
      "info_source": [
        "EVTPHOTO"
      ],
      "references": [
        "Tomáš Hruš (on Facebook), 14 JUL 2026 "
      ]
    },
    {
      "id": "weather_events:[ d\"2026-07-14T12:45:00.000Z\", s\"01KXJ9WVXN7FJHH93XFCHJ6CAW\" ]",
      "lat": 50.2236,
      "lon": 20.0936,
      "type": "WIND",
      "time": "2026-07-14T12:45:00.000Z",
      "country": "PL",
      "place": null,
      "description": null,
      "info_source": null,
      "references": null
    },
    {
      "id": "weather_events:[ d\"2026-07-14T12:44:00.000Z\", s\"01KXGC53M1HXXH5JGADT6NBZNQ\" ]",
      "lat": 50.225,
      "lon": 19.254,
      "type": "PRECIP",
      "time": "2026-07-14T12:44:00.000Z",
      "country": "PL",
      "place": null,
      "description": null,
      "info_source": null,
      "references": null
    },
    {
      "id": "weather_events:[ d\"2026-07-14T12:40:00.000Z\", s\"01KXGEB52346G9F6JV84NQDDXC\" ]",
      "lat": 50.2781,
      "lon": 19.1343,
      "type": "HAIL",
      "time": "2026-07-14T12:40:00.000Z",
      "country": "PL",
      "place": null,
      "description": null,
      "info_source": null,
      "references": null
    },
    {
      "id": "weather_events:[ d\"2026-07-14T12:40:00.000Z\", s\"01KXGATYPYRKKFE4KZ0XBNEHM2\" ]",
      "lat": 51.6401,
      "lon": 13.7,
      "type": "PRECIP",
      "time": "2026-07-14T12:40:00.000Z",
      "country": "DE",
      "place": null,
      "description": null,
      "info_source": null,
      "references": null
    },
    {
      "id": "weather_events:[ d\"2026-07-14T12:40:00.000Z\", s\"01KXGAS7M5PP41EB6ZS65W873D\" ]",
      "lat": 51.6426,
      "lon": 13.7395,
      "type": "PRECIP",
      "time": "2026-07-14T12:40:00.000Z",
      "country": "DE",
      "place": null,
      "description": null,
      "info_source": null,
      "references": null
    },
    {
      "id": "weather_events:[ d\"2026-07-14T12:39:00.000Z\", s\"01KXGC8FJG5TJ95GWHZTW2BDBS\" ]",
      "lat": 50.273,
      "lon": 16.651,
      "type": "PRECIP",
      "time": "2026-07-14T12:39:00.000Z",
      "country": "PL",
      "place": null,
      "description": null,
      "info_source": null,
      "references": null
    },
    {
      "id": "weather_events:[ d\"2026-07-14T12:39:00.000Z\", s\"01KXGC1SAQC210N89M127GDG1A\" ]",
      "lat": 50.157,
      "lon": 19.364,
      "type": "PRECIP",
      "time": "2026-07-14T12:39:00.000Z",
      "country": "PL",
      "place": null,
      "description": null,
      "info_source": null,
      "references": null
    },
    {
      "id": "weather_events:[ d\"2026-07-14T12:34:00.000Z\", s\"01KXGBZTZ1KW7EVFTK4BGTBQ4R\" ]",
      "lat": 50.132,
      "lon": 19.398,
      "type": "PRECIP",
      "time": "2026-07-14T12:34:00.000Z",
      "country": "PL",
      "place": null,
      "description": null,
      "info_source": null,
      "references": null
    },
    {
      "id": "weather_events:[ d\"2026-07-14T12:29:00.000Z\", s\"01KXGC393RCXNTJFERNJH8HABG\" ]",
      "lat": 50.158,
      "lon": 19.322,
      "type": "PRECIP",
      "time": "2026-07-14T12:29:00.000Z",
      "country": "PL",
      "place": null,
      "description": null,
      "info_source": null,
      "references": null
    },
    {
      "id": "weather_events:[ d\"2026-07-14T12:25:00.000Z\", s\"01KXK4TFZGM9ERJYRK0FTCANWP\" ]",
      "lat": 50.1799,
      "lon": 20.1775,
      "type": "WIND",
      "time": "2026-07-14T12:25:00.000Z",
      "country": "PL",
      "place": null,
      "description": null,
      "info_source": null,
      "references": null
    },
    {
      "id": "weather_events:[ d\"2026-07-14T12:10:00.000Z\", s\"01KXGAK08PFRQS8YJQ05J04H4Q\" ]",
      "lat": 51.778,
      "lon": 13.6284,
      "type": "PRECIP",
      "time": "2026-07-14T12:10:00.000Z",
      "country": "DE",
      "place": null,
      "description": null,
      "info_source": null,
      "references": null
    },